,,,,2.90,1.97,2.13*04
$GPGSV,3,1,11,17,20,240,17,13,63,233,32,20,56,087,46,02,07,318,39*72
$GPGSV,3,2,11,31,10,034,39,32,29,089,46,04,43,303,44,24,20,151,31*7F
$GPGSV,3,3,11,10,18,287,29,23,77,047,48,11,07,160,*49
$GPGLL,4349.22586,N,01108.47543,E,100901.00,A,A*68
$GPZDA,100901.00,05,04,2011,00,00*6C
$GPRMC,100902.00,A,4349.22582,N,01108.47526,E,0.038,160.35,050411,,,A*60
$GPVTG,160.35,T,,M,0.038,N,0.070,K,A*30
$GPGGA,100902.00,4349.22582,N,01108.47526,E,1,09,1.97,46.5,M,47.6,M,,*6D
$GPGSA,A,3,17,13,20,02,31,32,04,23,11,,,,2.90,1.97,2.13*04
$GPGSV,3,1,11,17,20,240,23,13,63,233,32,20,56,087,46,02,07,318,39*75
$GPGSV,3,2,11,31,10,034,42,32,29,089,45,04,43,303,43,24,20,151,31*77
$GPGSV,3,3,11,10,18,287,22,23,77,047,49,11,07,160,31*41
$GPGLL,4349.22582,N,01108.47526,E,100902.00,A,A*6C
$GPZDA,100902.00,05,04,2011,00,00*6F
$GPRMC,100903.00,A,4349.22574,N,01108.47515,E,0.208,158.51,050411,,,A*60
$GPVTG,158.51,T,,M,0.208,N,0.386,K,A*32
$GPGGA,100903.00,4349.22574,N,01108.47515,E,1,08,2.68,46.2,M,47.6,M,,*60
$GPGSA,A,3,17,13,20,02,31,32,04,23,,,,,3.55,2.68,2.32*0C
$GPGSV,3,1,11,17,20,240,26,13,63,233,25,20,56,087,45,02,07,318,34*78
$GPGSV,3,2,11,31,10,034,41,32,29,089,43,04,43,303,45,24,20,151,22*76
$GPGSV,3,3,11,10,18,287,22,23,77,047,46,11,07,160,*4C
$GPGLL,4349.22574,N,01108.47515,E,100903.00,A,A*64
$GPZDA,100903.00,05,04,2011,00,00*6E
$GPRMC,100904.00,A,4349.22568,N,01108.47522,E,0.392,153.92,050411,,,A*68
$GPVTG,153.92,T,,M,0.392,N,0.727,K,A*3B
$GPGGA,100904.00,4349.22568,N,01108.47522,E,1,08,2.68,45.9,M,47.6,M,,*66
$GPGSA,A,3,17,13,20,02,31,32,04,23,,,,,3.55,2.68,2.32*0C
$GPGSV,3,1,11,17,20,240,26,13,63,233,25,20,56,087,43,02,07,318,37*7D
$GPGSV,3,2,11,31,10,034,38,32,29,089,46,04,43,303,47,24,20,151,21*7C
$GPGSV,3,3,11,10,18,287,26,23,77,047,43,11,07,160,*4D
$GPGLL,4349.22568,N,01108.47522,E,100904.00,A,A*6A
$GPZDA,100904.00,05,04,2011,00,00*69
$GPRMC,100905.00,A,4349.22575,N,01108.47523,E,1.129,143.59,050411,,,A*61
$GPVTG,143.59,T,,M,1.129,N,2.092,K,A*35
$GPGGA,100905.00,4349.22575,N,01108.47523,E,1,08,2.68,45.8,M,47.6,M,,*6B
$GPGSA,A,3,17,13,20,02,31,32,04,23,,,,,3.55,2.68,2.32*0C
$GPGSV,3,1,11,17,20,240,21,13,63,233,30,20,56,087,40,02,07,318,34*7E
$GPGSV,3,2,11,31,10,034,36,32,29,089,40,04,43,303,44,24,20,151,27*71
$GPGSV,3,3,11,10,18,287,25,23,77,047,44,11,07,160,*49
$GPGLL,4349.22575,N,01108.47523,E,100905.00,A,A*66
$GPZDA,100905.00,05,04,2011,00,00*68
$GPRMC,100906.00,A,4349.22583,N,01108.47503,E,0.955,154.30,050411,,,A*62
$GPVTG,154.30,T,,M,0.955,N,1.770,K,A*36
$GPGGA,100906.00,4349.22583,N,01108.47503,E,1,08,2.09,45.8,M,47.6,M,,*64
$GPGSA,A,3,17,13,20,02,31,32,04,23,,,,,3.34,2.09,2.60*0B
$GPGSV,3,1,11,17,20,240,24,13,63,233,38,20,56,087,44,02,07,318,33*70
$GPGSV,3,2,11,31,10,034,39,32,29,089,39,04,43,303,46,24,20,151,30*74
$GPGSV,3,3,11,10,18,287,22,23,77,047,46,11,07,160,*4C
$GPGLL,4349.22583,N,01108.47503,E,100906.00,A,A*6E
$GPZDA,100906.00,05,04,2011,00,00*6B
$GPRMC,100907.00,A,4349.22463,N,01108.47499,E,1.878,156.88,050411,,,A*60
$GPVTG,156.88,T,,M,1.878,N,3.481,K,A*37
$GPGGA,100907.00,4349.22463,N,01108.47499,E,1,08,2.09,45.5,M,47.6,M,,*65
$GPGSA,A,3,17,13,20,02,31,32,04,23,,,,,3.34,2.09,2.60*0B
$GPGSV,3,1,11,17,20,240,28,13,63,233,44,20,56,087,43,02,07,318,29*7B
$GPGSV,3,2,11,31,10,034,34,32,29,089,44,04,43,303,44,24,20,151,30*71
$GPGSV,3,3,11,10,18,287,26,23,77,047,45,11,07,160,*4B
$GPGLL,4349.22463,N,01108.47499,E,100907.00,A,A*62
$GPZDA,100907.00,05,04,2011,00,00*6A
$GPRMC,100908.00,A,4349.22289,N,01108.47527,E,4.391,175.96,050411,,,A*6E
$GPVTG,175.96,T,,M,4.391,N,8.136,K,A*32
$GPGGA,100908.00,4349.22289,N,01108.47527,E,1,08,2.09,45.4,M,47.6,M,,*6D
$GPGSA,A,3,17,13,20,02,31,32,04,23,,,,,3.34,2.09,2.60*0B
$GPGSV,3,1,11,17,20,240,23,13,63,233,40,20,56,087,44,02,07,318,29*73
$GPGSV,3,2,11,31,10,034,32,32,29,089,47,04,43,303,45,24,20,151,30*75
$GPGSV,3,3,11,10,18,287,34,23,77,047,46,11,07,160,*4B
$GPGLL,4349.22289,N,01108.47527,E,100908.00,A,A*6B
$GPZDA,100908.00,05,04,2011,00,00*65
$GPRMC,100909.00,A,4349.22269,N,01108.47598,E,1.233,169.61,050411,,,A*6C
$GPVTG,169.61,T,,M,1.233,N,2.285,K,A*3A
$GPGGA,100909.00,4349.22269,N,01108.47598,E,1,08,2.09,45.2,M,47.6,M,,*60
$GPGSA,A,3,17,13,20,02,31,32,04,23,,,,,3.34,2.09,2.60*0B
$GPGSV,3,1,11,17,20,240,26,13,63,233,39,20,56,087,43,02,07,318,31*76
$GPGSV,3,2,11,31,10,034,38,32,29,089,44,04,43,303,45,24,20,151,31*7D
$GPGSV,3,3,11,10,18,287,34,23,77,047,44,11,07,160,*49
$GPGLL,4349.22269,N,01108.47598,E,100909.00,A,A*60
$GPZDA,100909.00,05,04,2011,00,00*64
$GPRMC,100910.00,A,4349.22159,N,01108.47559,E,2.024,326.62,050411,,,A*64
$GPVTG,326.62,T,,M,2.024,N,3.750,K,A*3B
$GPGGA,100910.00,4349.22159,N,01108.47559,E,1,08,2.09,44.8,M,47.6,M,,*6E
$GPGSA,A,3,17,13,20,02,31,32,04,23,,,,,3.34,2.09,2.60*0B
$GPGSV,3,1,11,17,20,240,27,13,63,233,44,20,56,087,39,02,07,318,31*70
$GPGSV,3,2,11,31,10,034,36,32,29,089,39,04,43,303,48,24,20,151,32*77
$GPGSV,3,3,11,10,18,287,24,23,77,047,44,11,07,160,*48
$GPGLL,4349.22159,N,01108.47559,E,100910.00,A,A*65
$GPZDA,100910.00,05,04,2011,00,00*6C
$GPRMC,100911.00,A,4349.22117,N,01108.47492,E,2.452,339.65,050411,,,A*65
$GPVTG,339.65,T,,M,2.452,N,4.543,K,A*30
$GPGGA,100911.00,4349.22117,N,01108.47492,E,1,08,1.97,44.2,M,47.6,M,,*6D
$GPGSA,A,3,17,13,20,02,31,32,04,23,,,,,2.90,1.97,2.13*04
$GPGSV,3,1,11,17,20,240,28,13,63,233,44,20,56,087,33,02,07,318,30*74
$GPGSV,3,2,11,31,10,034,30,32,29,089,41,04,43,303,46,24,20,151,28*7B
$GPGSV,3,3,11,10,18,287,30,23,77,047,43,11,07,160,*4A
$GPGLL,4349.22117,N,01108.47492,E,100911.00,A,A*68
$GPZDA,100911.00,05,04,2011,00,00*6D
$GPRMC,100912.00,A,4349.22083,N,01108.47408,E,1.979,275.95,050411,,,A*68
$GPVTG,275.95,T,,M,1.979,N,3.667,K,A*33
$GPGGA,100912.00,4349.22083,N,01108.47408,E,1,07,2.09,44.3,M,47.6,M,,*6B
$GPGSA,A,3,17,13,20,31,32,04,23,,,,,,3.34,2.09,2.60*09
$GPGSV,3,1,11,17,20,240,31,13,63,233,45,20,56,087,38,02,07,318,24*73
$GPGSV,3,2,11,31,10,034,33,32,29,089,38,04,43,303,46,24,20,151,34*7B
$GPGSV,3,3,11,10,18,287,31,23,77,047,44,11,07,160,30*4F
$GPGLL,4349.22083,N,01108.47408,E,100912.00,A,A*64
$GPZDA,100912.00,05,04,2011,00,00*6E
$GPRMC,100913.00,A,4349.22015,N,01108.47284,E,2.523,252.68,050411,,,A*63
$GPVTG,252.68,T,,M,2.523,N,4.675,K,A*30
$GPGGA,100913.00,4349.22015,N,01108.47284,E,1,08,1.50,43.9,M,47.6,M,,*6A
$GPGSA,A,3,17,13,20,31,32,04,23,11,,,,,2.41,1.50,1.88*00
$GPGSV,3,1,11,17,20,240,30,13,63,233,45,20,56,087,39,02,07,318,*75
$GPGSV,3,2,11,31,10,034,30,32,29,089,35,04,43,303,46,24,20,151,33*72
$GPGSV,3,3,11,10,18,287,32,23,77,047,42,11,07,160,33*49
$GPGLL,4349.22015,N,01108.47284,E,100913.00,A,A*68
$GPZDA,100913.00,05,04,2011,00,00*6F
$GPRMC,100914.00,A,4349.22017,N,01108.47211,E,2.302,333.30,050411,,,A*64
$GPVTG,333.30,T,,M,2.302,N,4.266,K,A*38
$GPGGA,100914.00,4349.22017,N,01108.47211,E,1,09,2.10,43.8,M,47.6,M,,*64
$GPGSA,A,3,17,13,20,02,31,32,04,23,11,,,,3.34,2.10,2.60*03
$GPGSV,3,1,11,17,20,240,29,13,63,233,45,20,56,087,37,02,07,318,30*70
$GPGSV,3,2,11,31,10,034,30,32,29,089,34,04,43,303,46,24,20,151,33*73
$GPGSV,3,3,11,10,18,287,33,23,77,047,44,11,07,160,29*45
$GPGLL,4349.22017,N,01108.47211,E,100914.00,A,A*61
$GPZDA,100914.00,05,04,2011,00,00*68
$GPRMC,100915.00,A,4349.22019,N,01108.47122,E,2.552,317.15,050411,,,A*6A
$GPVTG,317.15,T,,M,2.552,N,4.729,K,A*34
$GPGGA,100915.00,4349.22019,N,01108.47122,E,1,09,2.33,43.6,M,47.6,M,,*67
$GPGSA,A,3,17,13,20,02,31,32,04,23,11,,,,3.15,2.33,2.13*05
$GPGSV,3,1,11,17,20,240,29,13,63,233,44,20,56,087,36,02,07,318,30*70
$GPGSV,3,2,11,31,10,034,30,32,29,089,36,04,43,303,47,24,20,151,37*74
$GPGSV,3,3,11,10,18,287,35,23,77,047,44,11,07,160,28*42
$GPGLL,4349.22019,N,01108.47122,E,100915.00,A,A*6D
$GPZDA,100915.00,05,04,2011,00,00*69
$GPRMC,100916.00,A,4349.22041,N,01108.47045,E,2.294,323.03,050411,,,A*69
$GPVTG,323.03,T,,M,2.294,N,4.250,K,A*32
$GPGGA,100916.00,4349.22041,N,01108.47045,E,1,09,2.09,43.6,M,47.6,M,,*60
$GPGSA,A,3,17,13,20,02,31,32,04,23,11,,,,3.34,2.09,2.60*0B
$GPGSV,3,1,11,17,20,240,28,13,63,233,43,20,56,087,34,02,07,318,26*73
$GPGSV,3,2,11,31,10,034,31,32,29,089,32,04,43,303,45,24,20,151,37*73
$GPGSV,3,3,11,10,18,287,26,23,77,047,42,11,07,160,26*48
$GPGLL,4349.22041,N,01108.47045,E,100916.00,A,A*63
$GPZDA,100916.00,05,04,2011,00,00*6A
$GPRMC,100917.00,A,4349.22054,N,01108.46933,E,2.262,303.62,050411,,,A*69
$GPVTG,303.62,T,,M,2.262,N,4.191,K,A*30
$GPGGA,100917.00,4349.22054,N,01108.46933,E,1,09,2.33,43.5,M,47.6,M,,*66
$GPGSA,A,3,17,13,20,02,31,32,04,23,11,,,,3.15,2.33,2.13*05
$GPGSV,3,1,11,17,20,240,28,13,63,233,45,20,56,087,36,02,07,318,30*70
$GPGSV,3,2,11,31,10,034,29,32,29,089,35,04,43,303,48,24,20,151,38*7F
$GPGSV,3,3,11,10,18,287,27,23,77,047,44,11,07,160,30*48
$GPGLL,4349.22054,N,01108.46933,E,100917.00,A,A*6F
$GPZDA,100917.00,05,04,2011,00,00*6B
$GPRMC,100918.00,A,4349.22069,N,01108.46777,E,2.485,302.89,050411,,,A*6D
$GPVTG,302.89,T,,M,2.485,N,4.604,K,A*30
$GPGGA,100918.00,4349.22069,N,01108.46777,E,1,08,0.98,43.5,M,47.6,M,,*6B
$GPGSA,A,3,17,13,20,31,32,04,23,11,,,,,1.53,0.98,1.18*0C
$GPGSV,3,1,11,17,20,240,31,13,63,233,46,20,56,087,39,02,08,318,*78
$GPGSV,3,2,11,31,10,034,29,32,29,089,33,04,43,303,49,24,20,151,42*75
$GPGSV,3,3,11,10,18,287,24,23,77,047,43,11,07,160,28*45
$GPGLL,4349.22069,N,01108.46777,E,100918.00,A,A*60
$GPZDA,100918.00,05,04,2011,00,00*64
$GPRMC,100919.00,A,4349.22076,N,01108.46657,E,2.616,303.22,050411,,,A*69
$GPVTG,303.22,T,,M,2.616,N,4.848,K,A*3E
$GPGGA,100919.00,4349.22076,N,01108.46657,E,1,08,2.09,43.4,M,47.6,M,,*6C
$GPGSA,A,3,17,13,20,31,32,04,23,11,,,,,3.34,2.09,2.60*09
$GPGSV,3,1,11,17,20,240,27,13,63,233,44,20,56,087,38,02,08,318,31*7E
$GPGSV,3,2,11,31,10,034,33,32,29,089,32,04,43,303,46,24,20,151,40*72
$GPGSV,3,3,11,10,18,287,27,23,77,047,43,11,07,160,28*46
$GPGLL,4349.22076,N,01108.46657,E,100919.00,A,A*6C
$GPZDA,100919.00,05,04,2011,00,00*65
$GPRMC,100920.00,A,4349.22106,N,01108.46571,E,2.801,323.26,050411,,,A*6C
$GPVTG,323.26,T,,M,2.801,N,5.191,K,A*3C
$GPGGA,100920.00,4349.22106,N,01108.46571,E,1,09,2.10,43.4,M,47.6,M,,*6E
$GPGSA,A,3,17,13,20,02,31,32,04,23,11,,,,3.34,2.10,2.60*03
$GPGSV,3,1,11,17,20,240,28,13,63,233,45,20,56,087,37,02,08,318,30*7E
$GPGSV,3,2,11,31,10,034,36,32,29,089,34,04,43,303,48,24,20,151,40*7F
$GPGSV,3,3,11,10,18,287,30,23,77,047,43,11,07,160,31*48
$GPGLL,4349.22106,N,01108.46571,E,100920.00,A,A*67
$GPZDA,100920.00,05,04,2011,00,00*6F
$GPRMC,100921.00,A,4349.22202,N,01108.46545,E,2.334,313.28,050411,,,A*6D
$GPVTG,313.28,T,,M,2.334,N,4.324,K,A*31
$GPGGA,100921.00,4349.22202,N,01108.46545,E,1,09,2.09,43.0,M,47.6,M,,*63
$GPGSA,A,3,17,13,20,02,31,32,04,23,11,,,,3.34,2.09,2.60*0B
$GPGSV,3,1,11,17,20,240,30,13,63,233,46,20,56,087,37,02,08,318,31*75
$GPGSV,3,2,11,31,10,034,39,32,29,089,34,04,43,303,46,24,20,151,43*7D
$GPGSV,3,3,11,10,18,287,29,23,77,047,41,11,07,160,30*43
$GPGLL,4349.22202,N,01108.46545,E,100921.00,A,A*66
$GPZDA,100921.00,05,04,2011,00,00*6E
$GPRMC,100922.00,A,4349.22291,N,01108.46514,E,2.335,321.87,050411,,,A*65
$GPVTG,321.87,T,,M,2.335,N,4.326,K,A*36
$GPGGA,100922.00,4349.22291,N,01108.46514,E,1,09,2.09,42.8,M,47.6,M,,*67
$GPGSA,A,3,17,13,20,02,31,32,04,23,11,,,,3.34,2.09,2.60*0B
$GPGSV,3,1,11,17,20,240,30,13,63,233,45,20,56,087,37,02,08,318,30*77
$GPGSV,3,2,11,31,10,034,35,32,29,089,30,04,43,303,44,24,20,151,42*76
$GPGSV,3,3,11,10,18,287,24,23,77,047,40,11,07,160,23*4D
$GPGLL,4349.22291,N,01108.46514,E,100922.00,A,A*6B
$GPZDA,100922.00,05,04,2011,00,00*6D
$GPRMC,100923.00,A,4349.22372,N,01108.46468,E,2.059,328.33,050411,,,A*6D
$GPVTG,328.33,T,,M,2.059,N,3.816,K,A*36
$GPGGA,100923.00,4349.22372,N,01108.46468,E,1,09,1.30,42.4,M,47.6,M,,*65
$GPGSA,A,3,17,13,20,02,31,32,04,23,11,,,,1.92,1.30,1.41*0C
$GPGSV,3,1,11,17,20,240,32,13,63,233,46,20,56,087,36,02,08,318,31*76
$GPGSV,3,2,11,31,10,034,37,32,29,089,33,04,43,303,46,24,20,151,43*74
$GPGSV,3,3,11,10,18,287,24,23,77,047,43,11,07,160,31*4D
$GPGLL,4349.22372,N,01108.46468,E,100923.00,A,A*6C
$GPZDA,100923.00,05,04,2011,00,00*6C
$GPRMC,100924.00,A,4349.22484,N,01108.46348,E,2.194,326.21,050411,,,A*6C
$GPVTG,326.21,T,,M,2.194,N,4.065,K,A*30
$GPGGA,100924.00,4349.22484,N,01108.46348,E,1,09,2.63,41.3,M,47.6,M,,*68
$GPGSA,A,3,17,13,20,02,31,32,04,23,11,,,,3.88,2.63,2.86*08
$GPGSV,3,1,11,17,20,240,28,13,63,233,46,20,56,087,36,02,08,318,35*79
$GPGSV,3,2,11,31,10,034,40,32,29,089,32,04,43,303,45,24,20,151,43*76
$GPGSV,3,3,11,10,18,287,27,23,77,047,42,11,07,160,34*4A
$GPGLL,4349.22484,N,01108.46348,E,100924.00,A,A*60
$GPZDA,100924.00,05,04,2011,00,00*6B
$GPRMC,100925.00,A,4349.22540,N,01108.46244,E,1.891,325.96,050411,,,A*69
$GPVTG,325.96,T,,M,1.891,N,3.505,K,A*34
$GPGGA,100925.00,4349.22540,N,01108.46244,E,1,09,1.15,40.1,M,47.6,M,,*6C
$GPGSA,A,3,17,13,20,02,31,32,04,23,11,,,,1.77,1.15,1.35*03
$GPGSV,3,1,11,17,20,240,39,13,63,233,45,20,56,087,37,02,08,318,36*78
$GPGSV,3,2,11,31,10,034,43,32,29,089,32,04,43,303,45,24,20,151,41*77
$GPGSV,3,3,11,10,18,287,31,23,77,047,44,11,07,160,30*4F
$GPGLL,4349.22540,N,01108.46244,E,100925.00,A,A*65
$GPZDA,100925.00,05,04,2011,00,00*6A
$GPRMC,100926.00,A,4349.22549,N,01108.46165,E,2.058,334.99,050411,,,A*62
$GPVTG,334.99,T,,M,2.058,N,3.813,K,A*3F
$GPGGA,100926.00,4349.22549,N,01108.46165,E,1,09,1.15,38.7,M,47.6,M,,*6F
$GPGSA,A,3,17,13,20,02,31,32,04,23,11,,,,1.77,1.15,1.35*03
$GPGSV,3,1,11,17,20,240,44,13,63,233,43,20,56,087,37,02,08,318,34*76
$GPGSV,3,2,11,31,10,034,40,32,29,089,35,04,43,303,47,24,20,151,37*70
$GPGSV,3,3,11,10,18,288,31,23,77,047,42,11,07,160,30*46
$GPGLL,4349.22549,N,01108.46165,E,100926.00,A,A*6F
$GPZDA,100926.00,05,04,2011,00,00*69
$GPRMC,100927.00,A,4349.22564,N,01108.46155,E,1.897,337.91,050411,,,A*6C
$GPVTG,337.91,T,,M,1.897,N,3.515,K,A*37
$GPGGA,100927.00,4349.22564,N,01108.46155,E,1,09,1.30,38.0,M,47.6,M,,*62
$GPGSA,A,3,17,13,20,02,31,32,04,23,11,,,,1.92,1.30,1.41*0C
$GPGSV,3,1,11,17,20,240,45,13,63,233,45,20,56,087,37,02,08,318,29*7D
$GPGSV,3,2,11,31,10,034,41,32,29,089,33,04,43,303,44,24,20,151,35*76
$GPGSV,3,3,11,10,18,288,30,23,77,047,43,11,06,160,30*47
$GPGLL,4349.22564,N,01108.46155,E,100927.00,A,A*62
$GPZDA,100927.00,05,04,2011,00,00*68
$GPRMC,100928.00,A,4349.22600,N,01108.46165,E,1.418,337.27,050411,,,A*67
$GPVTG,337.27,T,,M,1.418,N,2.628,K,A*3D
$GPGGA,100928.00,4349.22600,N,01108.46165,E,1,09,0.98,37.4,M,47.6,M,,*67
$GPGSA,A,3,17,13,20,02,31,32,04,23,11,,,,1.53,0.98,1.18*0E
$GPGSV,3,1,11,17,20,240,40,13,63,233,41,20,56,087,40,02,08,318,27*72
$GPGSV,3,2,11,31,10,034,40,32,29,089,44,04,43,303,43,24,20,151,37*72
$GPGSV,3,3,11,10,18,288,32,23,77,047,44,11,06,160,33*41
$GPGLL,4349.22600,N,01108.46165,E,100928.00,A,A*6F
$GPZDA,100928.00,05,04,2011,00,00*67
$GPRMC,100929.00,A,4349.22615,N,01108.46287,E,2.520,75.67,050411,,,A*55
$GPVTG,75.67,T,,M,2.520,N,4.669,K,A*06
$GPGGA,100929.00,4349.22615,N,01108.46287,E,1,09,2.10,37.1,M,47.6,M,,*6A
$GPGSA,A,3,17,13,20,02,31,32,04,23,11,,,,3.34,2.10,2.60*03
$GPGSV,3,1,11,17,20,240,34,13,64,233,43,20,56,087,41,02,08,318,29*7B
$GPGSV,3,2,11,31,10,034,38,32,29,089,45,04,43,303,45,24,20,151,40*7A
$GPGSV,3,3,11,10,18,288,30,23,77,047,45,11,06,160,30*41
$GPGLL,4349.22615,N,01108.46287,E,100929.00,A,A*65
$GPZDA,100929.00,05,04,2011,00,00*66
$GPRMC,100930.00,A,4349.22634,N,01108.46386,E,2.267,103.44,050411,,,A*6B
$GPVTG,103.44,T,,M,2.267,N,4.200,K,A*38
$GPGGA,100930.00,4349.22634,N,01108.46386,E,1,09,1.30,37.0,M,47.6,M,,*61
$GPGSA,A,3,17,13,20,02,31,32,04,23,11,,,,1.92,1.30,1.41*0C
$GPGSV,3,1,11,17,20,240,33,13,64,233,40,20,56,087,41,02,08,318,25*73
$GPGSV,3,2,11,31,10,034,39,32,29,089,44,04,43,303,37,24,20,151,42*7D
$GPGSV,3,3,11,10,18,288,33,23,77,047,46,11,06,160,31*40
$GPGLL,4349.22634,N,01108.46386,E,100930.00,A,A*6E
$GPZDA,100930.00,05,04,2011,00,00*6E
$GPRMC,100931.00,A,4349.22667,N,01108.46482,E,2.670,88.72,050411,,,A*5A
$GPVTG,88.72,T,,M,2.670,N,4.948,K,A*0A
$GPGGA,100931.00,4349.22667,N,01108.46482,E,1,09,1.13,37.2,M,47.6,M,,*66
$GPGSA,A,3,17,13,20,02,31,32,04,23,11,,,,1.72,1.13,1.30*05
$GPGSV,3,1,11,17,20,240,30,13,64,233,40,20,56,087,38,02,08,318,28*73
$GPGSV,3,2,11,31,10,034,36,32,29,089,41,04,43,303,36,24,20,151,44*70
$GPGSV,3,3,11,10,18,288,33,23,77,047,46,11,06,160,32*43
$GPGLL,4349.22667,N,01108.46482,E,100931.00,A,A*6A
$GPZDA,100931.00,05,04,2011,00,00*6F
$GPRMC,100932.00,A,4349.22724,N,01108.46594,E,2.885,49.85,050411,,,A*58
$GPVTG,49.85,T,,M,2.885,N,5.347,K,A*0F
$GPGGA,100932.00,4349.22724,N,01108.46594,E,1,09,0.85,37.1,M,47.6,M,,*68
$GPGSA,A,3,17,13,20,02,31,32,04,23,11,,,,1.33,0.85,1.03*0E
$GPGSV,3,1,11,17,20,240,29,13,64,233,40,20,56,087,32,02,08,318,30*78
$GPGSV,3,2,11,31,10,034,42,32,29,089,40,04,43,303,35,24,20,151,40*75
$GPGSV,3,3,11,10,18,288,30,23,77,047,45,11,06,160,27*47
$GPGLL,4349.22724,N,01108.46594,E,100932.00,A,A*69
$GPZDA,100932.00,05,04,2011,00,00*6C
$GPRMC,100933.00,A,4349.22815,N,01108.46699,E,3.529,47.16,050411,,,A*54
$GPVTG,47.16,T,,M,3.529,N,6.540,K,A*03
$GPGGA,100933.00,4349.22815,N,01108.46699,E,1,09,2.10,37.2,M,47.6,M,,*67
$GPGSA,A,3,17,13,20,02,31,32,04,23,11,,,,3.34,2.10,2.60*03
$GPGSV,3,1,11,17,20,240,30,13,64,233,37,20,56,087,34,02,08,318,31*77
$GPGSV,3,2,11,31,10,034,39,32,29,089,31,04,43,303,35,24,20,151,42*7D
$GPGSV,3,3,11,10,18,288,31,23,77,047,44,11,06,160,29*49
$GPGLL,4349.22815,N,01108.46699,E,100933.00,A,A*6B
$GPZDA,100933.00,05,04,2011,00,00*6D
$GPRMC,100934.00,A,4349.22790,N,01108.46895,E,3.196,57.16,050411,,,A*52
$GPVTG,57.16,T,,M,3.196,N,5.921,K,A*0A
$GPGGA,100934.00,4349.22790,N,01108.46895,E,1,09,1.33,37.1,M,47.6,M,,*61
$GPGSA,A,3,17,13,20,02,31,32,04,23,11,,,,2.00,1.33,1.50*07
$GPGSV,3,1,11,17,20,240,31,13,64,233,37,20,56,087,40,02,08,318,31*75
$GPGSV,3,2,11,31,10,034,37,32,29,089,44,04,43,303,39,24,20,151,46*79
$GPGSV,3,3,11,10,18,288,26,23,77,047,41,11,06,160,30*42
$GPGLL,4349.22790,N,01108.46895,E,100934.00,A,A*6C
$GPZDA,100934.00,05,04,2011,00,00*6A
$GPRMC,100935.00,A,4349.22522,N,01108.46920,E,3.132,141.07,050411,,,A*6F
$GPVTG,141.07,T,,M,3.132,N,5.804,K,A*34
$GPGGA,100935.00,4349.22522,N,01108.46920,E,1,09,1.15,36.7,M,47.6,M,,*67
$GPGSA,A,3,17,13,20,02,31,32,04,23,11,,,,1.77,1.15,1.34*02
$GPGSV,3,1,11,17,20,240,33,13,64,233,38,20,56,087,40,02,08,318,31*78
$GPGSV,3,2,11,31,10,034,31,32,29,089,43,04,43,303,39,24,20,151,42*7C
$GPGSV,3,3,11,10,18,288,30,23,77,047,35,11,06,160,30*46
$GPGLL,4349.22522,N,01108.46920,E,100935.00,A,A*69
$GPZDA,100935.00,05,04,2011,00,00*6B
$GPRMC,100936.00,A,4349.22423,N,01108.47021,E,3.138,133.19,050411,,,A*65
$GPVTG,133.19,T,,M,3.138,N,5.814,K,A*35
$GPGGA,100936.00,4349.22423,N,01108.47021,E,1,09,1.30,36.7,M,47.6,M,,*6A
$GPGSA,A,3,17,13,20,02,31,32,04,23,11,,,,1.92,1.30,1.41*0C
$GPGSV,3,1,11,17,20,240,31,13,64,233,39,20,56,087,43,02,08,318,30*79
$GPGSV,3,2,11,31,10,034,33,32,29,089,44,04,43,303,41,24,20,151,39*7A
$GPGSV,3,3,11,10,18,288,28,23,77,047,40,11,06,160,30*4D
$GPGLL,4349.22423,N,01108.47021,E,100936.00,A,A*63
$GPZDA,100936.00,05,04,2011,00,00*68
$GPRMC,100937.00,A,4349.22413,N,01108.47099,E,2.335,107.79,050411,,,A*6B
$GPVTG,107.79,T,,M,2.335,N,4.327,K,A*30
$GPGGA,100937.00,4349.22413,N,01108.47099,E,1,09,0.85,36.8,M,47.6,M,,*6B
$GPGSA,A,3,17,13,20,02,31,32,04,23,11,,,,1.33,0.85,1.03*0E
$GPGSV,3,1,11,17,20,240,30,13,64,233,39,20,56,087,43,02,08,318,29*70
$GPGSV,3,2,11,31,10,034,30,32,29,089,44,04,43,303,37,24,20,151,41*77
$GPGSV,3,3,11,10,18,288,24,23,77,047,42,11,06,160,28*4A
$GPGLL,4349.22413,N,01108.47099,E,100937.00,A,A*62
$GPZDA,100937.00,05,04,2011,00,00*69
$GPRMC,100938.00,A,4349.22276,N,01108.47212,E,2.146,109.11,050411,,,A*66
$GPVTG,109.11,T,,M,2.146,N,3.977,K,A*3E
$GPGGA,100938.00,4349.22276,N,01108.47212,E,1,09,1.30,37.0,M,47.6,M,,*66
$GPGSA,A,3,17,13,20,02,31,32,04,23,11,,,,1.92,1.30,1.41*0C
$GPGSV,3,1,11,17,20,240,35,13,64,233,40,20,56,087,43,02,08,318,31*72
$GPGSV,3,2,11,31,10,034,36,32,29,089,45,04,43,303,39,24,20,151,44*7B
$GPGSV,3,3,11,10,18,288,27,23,77,047,41,11,06,160,27*45
$GPGLL,4349.22276,N,01108.47212,E,100938.00,A,A*69
$GPZDA,100938.00,05,04,2011,00,00*66
$GPRMC,100939.00,A,4349.22135,N,01108.47258,E,2.613,127.65,050411,,,A*65
$GPVTG,127.65,T,,M,2.613,N,4.841,K,A*35
$GPGGA,100939.00,4349.22135,N,01108.47258,E,1,09,2.10,37.3,M,47.6,M,,*6F
$GPGSA,A,3,17,13,20,02,31,32,04,23,11,,,,3.34,2.10,2.60*03
$GPGSV,3,1,11,17,20,240,32,13,64,233,37,20,56,087,42,02,08,318,24*70
$GPGSV,3,2,11,31,10,034,34,32,29,089,42,04,43,303,34,24,20,151,43*74
$GPGSV,3,3,11,10,18,288,28,23,76,047,44,11,06,160,28*41
$GPGLL,4349.22135,N,01108.47258,E,100939.00,A,A*62
$GPZDA,100939.00,05,04,2011,00,00*67
$GPRMC,100940.00,A,4349.22133,N,01108.47415,E,3.873,116.54,050411,,,A*6B
$GPVTG,116.54,T,,M,3.873,N,7.177,K,A*33
$GPGGA,100940.00,4349.22133,N,01108.47415,E,1,09,1.79,37.6,M,47.6,M,,*61
$GPGSA,A,3,17,13,20,02,31,32,04,23,11,,,,2.68,1.79,1.99*02
$GPGSV,3,1,11,17,20,240,35,13,64,233,36,20,56,087,41,02,08,318,30*70
$GPGSV,3,2,11,31,10,034,31,32,29,089,41,04,43,303,37,24,19,151,44*7C
$GPGSV,3,3,11,10,18,288,30,23,76,047,45,11,06,160,30*40
$GPGLL,4349.22133,N,01108.47415,E,100940.00,A,A*65
$GPZDA,100940.00,05,04,2011,00,00*69
$GPRMC,100941.00,A,4349.22098,N,01108.47549,E,2.715,120.54,050411,,,A*69
$GPVTG,120.54,T,,M,2.715,N,5.032,K,A*3A
$GPGGA,100941.00,4349.22098,N,01108.47549,E,1,09,1.30,37.7,M,47.6,M,,*64
$GPGSA,A,3,17,13,20,02,31,32,04,23,11,,,,1.92,1.30,1.41*0C
$GPGSV,3,1,11,17,20,240,32,13,64,233,42,20,56,087,38,02,08,318,27*7C
$GPGSV,3,2,11,31,10,034,33,32,29,089,42,04,43,303,36,24,19,151,45*7D
$GPGSV,3,3,11,10,18,288,33,23,76,047,45,11,06,160,31*42
$GPGLL,4349.22098,N,01108.47549,E,100941.00,A,A*6C
$GPZDA,100941.00,05,04,2011,00,00*68
$GPRMC,100942.00,A,4349.21924,N,01108.47583,E,3.145,143.03,050411,,,A*64
$GPVTG,143.03,T,,M,3.145,N,5.827,K,A*33
$GPGGA,100942.00,4349.21924,N,01108.47583,E,1,09,1.17,38.3,M,47.6,M,,*62
$GPGSA,A,3,17,13,20,02,31,32,04,23,11,,,,1.76,1.17,1.31*04
$GPGSV,3,1,11,17,20,240,36,13,64,233,42,20,56,087,42,02,08,318,27*75
$GPGSV,3,2,11,31,10,034,35,32,29,089,45,04,43,303,38,24,19,151,45*72
$GPGSV,3,3,11,10,18,288,32,23,76,047,42,11,06,160,31*44
$GPGLL,4349.21924,N,01108.47583,E,100942.00,A,A*64
$GPZDA,100942.00,05,04,2011,00,00*6B
$GPRMC,100943.00,A,4349.21784,N,01108.47648,E,3.360,144.21,050411,,,A*67
$GPVTG,144.21,T,,M,3.360,N,6.227,K,A*38
$GPGGA,100943.00,4349.21784,N,01108.47648,E,1,09,1.98,38.4,M,47.6,M,,*63
$GPGSA,A,3,17,13,20,02,31,32,04,23,11,,,,2.90,1.98,2.13*0B
$GPGSV,3,1,11,17,20,240,32,13,64,233,39,20,56,087,42,02,08,318,35*7E
$GPGSV,3,2,11,31,10,034,35,32,29,089,45,04,43,303,40,24,19,151,44*7C
$GPGSV,3,3,11,10,18,288,32,23,76,047,41,11,06,160,26*41
$GPGLL,4349.21784,N,01108.47648,E,100943.00,A,A*65
$GPZDA,100943.00,05,04,2011,00,00*6A
$GPRMC,100944.00,A,4349.21618,N,01108.47686,E,3.633,154.33,050411,,,A*67
$GPVTG,154.33,T,,M,3.633,N,6.731,K,A*3B
$GPGGA,100944.00,4349.21618,N,01108.47686,E,1,09,2.66,38.5,M,47.6,M,,*61
$GPGSA,A,3,17,13,20,02,31,32,04,23,11,,,,3.52,2.66,2.31*06
$GPGSV,3,1,11,17,20,240,34,13,64,233,39,20,56,087,44,02,08,318,34*7F
$GPGSV,3,2,11,31,10,034,36,32,29,089,44,04,43,303,36,24,19,151,42*79
$GPGSV,3,3,11,10,18,288,36,23,76,047,43,11,06,160,29*48
$GPGLL,4349.21618,N,01108.47686,E,100944.00,A,A*64
$GPZDA,100944.00,05,04,2011,00,00*6D
$GPRMC,100945.00,A,4349.21697,N,01108.47781,E,1.515,152.15,050411,,,A*60
$GPVTG,152.15,T,,M,1.515,N,2.807,K,A*32
$GPGGA,100945.00,4349.21697,N,01108.47781,E,1,09,0.98,38.7,M,47.6,M,,*60
$GPGSA,A,3,17,13,20,02,31,32,04,23,11,,,,1.53,0.98,1.17*01
$GPGSV,3,1,11,17,20,240,33,13,64,233,36,20,56,087,42,02,08,318,30*75
$GPGSV,3,2,11,31,10,034,31,32,29,089,39,04,43,303,32,24,19,151,44*76
$GPGSV,3,3,11,10,18,288,32,23,76,047,43,11,06,160,31*45
$GPGLL,4349.21697,N,01108.47781,E,100945.00,A,A*64
$GPZDA,100945.00,05,04,2011,00,00*6C
$GPRMC,100946.00,A,4349.21671,N,01108.47877,E,2.068,128.27,050411,,,A*6D
$GPVTG,128.27,T,,M,2.068,N,3.832,K,A*35
$GPGGA,100946.00,4349.21671,N,01108.47877,E,1,09,1.30,38.9,M,47.6,M,,*60
$GPGSA,A,3,17,13,20,02,31,32,04,23,11,,,,1.92,1.30,1.41*0C
$GPGSV,3,1,11,17,20,240,33,13,64,233,41,20,56,087,41,02,08,318,30*76
$GPGSV,3,2,11,31,10,034,40,32,29,089,40,04,43,303,36,24,19,151,39*70
$GPGSV,3,3,11,10,18,288,30,23,76,047,47,11,06,160,30*42
$GPGLL,4349.21671,N,01108.47877,E,100946.00,A,A*69
$GPZDA,100946.00,05,04,2011,00,00*6F
$GPRMC,100947.00,A,4349.21730,N,01108.47940,E,0.691,124.90,050411,,,A*6F
$GPVTG,124.90,T,,M,0.691,N,1.280,K,A*36
$GPGGA,100947.00,4349.21730,N,01108.47940,E,1,09,1.30,38.9,M,47.6,M,,*60
$GPGSA,A,3,17,13,20,02,31,32,04,23,11,,,,1.92,1.30,1.41*0C
$GPGSV,3,1,11,17,20,240,32,13,64,233,40,20,56,087,37,02,08,318,27*71
$GPGSV,3,2,11,31,10,033,41,32,29,089,32,04,43,303,37,24,19,151,42*7E
$GPGSV,3,3,11,10,18,288,35,23,76,047,43,11,06,160,25*47
$GPGLL,4349.21730,N,01108.47940,E,100947.00,A,A*69
$GPZDA,100947.00,05,04,2011,00,00*6E
$GPRMC,100948.00,A,4349.21720,N,01108.48008,E,0.262,122.32,050411,,,A*6D
$GPVTG,122.32,T,,M,0.262,N,0.485,K,A*32
$GPGGA,100948.00,4349.21720,N,01108.48008,E,1,09,1.30,39.0,M,47.6,M,,*6C
$GPGSA,A,3,17,13,20,02,31,32,04,23,11,,,,1.92,1.30,1.41*0C
$GPGSV,3,1,11,17,20,240,28,13,64,233,29,20,56,087,40,02,08,318,31*72
$GPGSV,3,2,11,31,10,033,44,32,29,090,30,04,43,303,35,24,19,151,41*70
$GPGSV,3,3,11,10,18,288,32,23,76,047,47,11,06,160,28*49
$GPGLL,4349.21720,N,01108.48008,E,100948.00,A,A*6D
$GPZDA,100948.00,05,04,2011,00,00*61
$GPRMC,100949.00,A,4349.21786,N,01108.48015,E,0.058,119.92,050411,,,A*65
$GPVTG,119.92,T,,M,0.058,N,0.108,K,A*3B
$GPGGA,100949.00,4349.21786,N,01108.48015,E,1,09,1.98,38.9,M,47.6,M,,*67
$GPGSA,A,3,17,13,20,02,31,32,04,23,11,,,,2.90,1.98,2.13*0B
$GPGSV,3,1,11,17,20,240,32,13,64,233,32,20,56,087,42,02,08,318,34*74
$GPGSV,3,2,11,31,10,033,46,32,29,090,30,04,43,303,33,24,19,151,40*75
$GPGSV,3,3,11,10,18,288,36,23,76,047,48,11,06,160,30*4B
$GPGLL,4349.21786,N,01108.48015,E,100949.00,A,A*6C
$GPZDA,100949.00,05,04,2011,00,00*60
$GPRMC,100950.00,A,4349.21828,N,01108.48002,E,0.059,117.30,050411,,,A*67
$GPVTG,117.30,T,,M,0.059,N,0.110,K,A*35
$GPGGA,100950.00,4349.21828,N,01108.48002,E,1,09,2.08,39.0,M,47.6,M,,*60
$GPGSA,A,3,17,13,20,02,31,32,04,23,11,,,,3.05,2.08,2.24*08
$GPGSV,3,1,11,17,20,240,37,13,64,233,33,20,56,087,40,02,08,318,35*73
$GPGSV,3,2,11,31,10,033,44,32,29,090,38,04,43,303,23,24,19,151,43*7D
$GPGSV,3,3,11,10,18,288,31,23,76,047,48,11,06,160,24*49
$GPGLL,4349.21828,N,01108.48002,E,100950.00,A,A*69
$GPZDA,100950.00,05,04,2011,00,00*68
$GPRMC,100951.00,A,4349.21894,N,01108.48003,E,0.016,,050411,,,A*71
$GPVTG,,T,,M,0.016,N,0.030,K,A*27
$GPGGA,100951.00,4349.21894,N,01108.48003,E,1,09,1.28,39.2,M,47.6,M,,*64
$GPGSA,A,3,17,13,20,02,31,32,04,23,11,,,,1.96,1.28,1.48*08
$GPGSV,3,1,11,17,20,240,36,13,64,233,32,20,56,087,38,02,08,318,34*7D
$GPGSV,3,2,11,31,10,033,43,32,29,090,38,04,43,303,32,24,19,151,43*7A
$GPGSV,3,3,11,10,18,288,29,23,76,047,47,11,06,160,29*42
$GPGLL,4349.21894,N,01108.48003,E,100951.00,A,A*6E
$GPZDA,100951.00,05,04,2011,00,00*69
$GPRMC,100952.00,A,4349.21919,N,01108.47974,E,0.054,112.98,050411,,,A*6B
$GPVTG,112.98,T,,M,0.054,N,0.101,K,A*3F
$GPGGA,100952.00,4349.21919,N,01108.47974,E,1,09,1.28,39.3,M,47.6,M,,*64
$GPGSA,A,3,17,13,20,02,31,32,04,23,11,,,,1.96,1.28,1.48*08
$GPGSV,3,1,11,17,20,240,36,13,64,233,34,20,56,087,39,02,08,318,34*7A
$GPGSV,3,2,11,31,10,033,44,32,29,090,39,04,43,303,26,24,19,151,42*78
$GPGSV,3,3,11,10,18,288,29,23,76,047,47,11,06,160,29*42
$GPGLL,4349.21919,N,01108.47974,E,100952.00,A,A*6F
$GPZDA,100952.00,05,04,2011,00,00*6A
$GPRMC,100953.00,A,4349.21953,N,01108.47968,E,0.014,,050411,,,A*70
$GPVTG,,T,,M,0.014,N,0.026,K,A*22
$GPGGA,100953.00,4349.21953,N,01108.47968,E,1,09,1.28,39.4,M,47.6,M,,*61
$GPGSA,A,3,17,13,20,02,31,32,04,23,11,,,,1.96,1.28,1.48*08
$GPGSV,3,1,11,17,20,240,39,13,64,233,30,20,56,087,41,02,08,318,34*7E
$GPGSV,3,2,11,31,10,033,44,32,29,090,39,04,43,303,30,24,19,151,43*7E
$GPGSV,3,3,11,10,18,288,,23,76,047,48,11,06,160,30*4E
$GPGLL,4349.21953,N,01108.47968,E,100953.00,A,A*6D
$GPZDA,100953.00,05,04,2011,00,00*6B
$GPRMC,100954.00,A,4349.21992,N,01108.47948,E,0.046,116.36,050411,,,A*62
$GPVTG,116.36,T,,M,0.046,N,0.085,K,A*31
$GPGGA,100954.00,4349.21992,N,01108.47948,E,1,09,1.31,39.5,M,47.6,M,,*60
$GPGSA,A,3,17,13,20,02,31,32,04,23,11,,,,2.10,1.31,1.64*03
$GPGSV,3,1,11,17,20,240,39,13,64,233,30,20,56,087,41,02,08,318,33*79
$GPGSV,3,2,11,31,10,033,45,32,29,090,38,04,43,303,17,24,19,151,43*7B
$GPGSV,3,3,11,10,18,288,,23,76,047,47,11,06,160,31*40
$GPGLL,4349.21992,N,01108.47948,E,100954.00,A,A*65
$GPZDA,100954.00,05,04,2011,00,00*6C
$GPRMC,100955.00,A,4349.22006,N,01108.47934,E,0.100,118.74,050411,,,A*64
$GPVTG,118.74,T,,M,0.100,N,0.185,K,A*3B
$GPGGA,100955.00,4349.22006,N,01108.47934,E,1,09,1.74,39.7,M,47.6,M,,*6E
$GPGSA,A,3,17,13,20,02,31,32,04,23,11,,,,2.28,1.74,1.48*07
$GPGSV,3,1,11,17,20,240,33,13,64,233,39,20,56,087,40,02,08,318,29*70
$GPGSV,3,2,11,31,10,033,44,32,29,090,34,04,43,303,37,24,19,151,45*72
$GPGSV,3,3,11,10,18,288,30,23,76,047,47,11,06,160,29*4A
$GPGLL,4349.22006,N,01108.47934,E,100955.00,A,A*68
$GPZDA,100955.00,05,04,2011,00,00*6D
$GPRMC,100956.00,A,4349.21996,N,01108.47958,E,0.038,117.27,050411,,,A*6D
$GPVTG,117.27,T,,M,0.038,N,0.071,K,A*32
$GPGGA,100956.00,4349.21996,N,01108.47958,E,1,09,1.30,39.5,M,47.6,M,,*66
$GPGSA,A,3,17,13,20,02,31,32,04,23,11,,,,1.92,1.30,1.41*0C
$GPGSV,3,1,11,17,20,240,34,13,64,233,37,20,56,087,41,02,08,318,28*79
$GPGSV,3,2,11,31,10,033,43,32,29,090,32,04,43,303,41,24,19,151,41*76
$GPGSV,3,3,11,10,18,288,36,23,76,047,46,11,06,160,30*45
$GPGLL,4349.21996,N,01108.47958,E,100956.00,A,A*62
$GPZDA,100956.00,05,04,2011,00,00*6E
$GPRMC,100957.00,A,4349.21984,N,01108.47995,E,0.039,116.72,050411,,,A*6E
$GPVTG,116.72,T,,M,0.039,N,0.071,K,A*32
$GPGGA,100957.00,4349.21984,N,01108.47995,E,1,09,1.61,39.2,M,47.6,M,,*66
$GPGSA,A,3,17,13,20,02,31,32,04,23,11,,,,2.20,1.61,1.51*03
$GPGSV,3,1,11,17,20,240,37,13,64,233,38,20,56,087,41,02,08,318,28*75
$GPGSV,3,2,11,31,10,033,43,32,29,090,27,04,43,303,41,24,19,151,39*7D
$GPGSV,3,3,11,10,18,288,35,23,76,047,46,11,06,160,30*46
$GPGLL,4349.21984,N,01108.47995,E,100957.00,A,A*61
$GPZDA,100957.00,05,04,2011,00,00*6F
$GPRMC,100958.00,A,4349.22001,N,01108.48007,E,0.297,115.09,050411,,,A*62
$GPVTG,115.09,T,,M,0.297,N,0.551,K,A*3C
$GPGGA,100958.00,4349.22001,N,01108.48007,E,1,09,1.06,39.0,M,47.6,M,,*60
$GPGSA,A,3,17,13,20,02,31,32,04,23,11,,,,1.50,1.06,1.06*04
$GPGSV,3,1,11,17,20,240,37,13,64,233,38,20,56,087,41,02,08,318,35*79
$GPGSV,3,2,11,31,10,033,40,32,29,090,30,04,43,303,37,24,19,151,41*76
$GPGSV,3,3,11,10,18,288,33,23,76,047,45,11,06,160,27*45
$GPGLL,4349.22001,N,01108.48007,E,100958.00,A,A*64
$GPZDA,100958.00,05,04,2011,00,00*60
$GPRMC,100959.00,A,4349.21965,N,01108.48070,E,2.564,121.56,050411,,,A*6F
$GPVTG,121.56,T,,M,2.564,N,4.751,K,A*3E
$GPGGA,100959.00,4349.21965,N,01108.48070,E,1,09,2.65,38.9,M,47.6,M,,*67
$GPGSA,A,3,17,13,20,02,31,32,04,23,11,,,,3.51,2.65,2.30*07
$GPGSV,3,1,11,17,20,240,34,13,64,233,40,20,56,087,38,02,08,318,37*79
$GPGSV,3,2,11,31,10,033,39,32,29,090,41,04,43,303,41,24,19,151,42*7C
$GPGSV,3,3,11,10,18,288,30,23,76,047,44,11,06,160,32*43
$GPGLL,4349.21965,N,01108.48070,E,100959.00,A,A*6D
$GPZDA,100959.00,05,04,2011,00,00*61
$GPRMC,101000.00,A,4349.21935,N,01108.48152,E,2.248,124.48,050411,,,A*6C
$GPVTG,124.48,T,,M,2.248,N,4.166,K,A*3F
$GPGGA,101000.00,4349.21935,N,01108.48152,E,1,09,1.17,39.1,M,47.6,M,,*68
$GPGSA,A,3,17,13,20,02,31,32,04,23,11,,,,1.80,1.17,1.38*04
$GPGSV,3,1,11,17,20,240,35,13,64,233,41,20,56,087,37,02,08,318,36*77
$GPGSV,3,2,11,31,10,033,37,32,29,090,43,04,43,303,42,24,19,151,44*75
$GPGSV,3,3,11,10,18,288,31,23,76,047,44,11,06,160,32*42
$GPGLL,4349.21935,N,01108.48152,E,101000.00,A,A*6D
$GPZDA,101000.00,05,04,2011,00,00*65
$GPRMC,101001.00,A,4349.21942,N,01108.48205,E,1.928,121.36,050411,,,A*6E
$GPVTG,121.36,T,,M,1.928,N,3.574,K,A*3D
$GPGGA,101001.00,4349.21942,N,01108.48205,E,1,09,1.98,39.0,M,47.6,M,,*6E
$GPGSA,A,3,17,13,20,02,31,32,04,23,11,,,,2.90,1.98,2.13*0B
$GPGSV,3,1,11,17,20,240,30,13,64,233,40,20,56,087,42,02,08,318,36*71
$GPGSV,3,2,11,31,10,033,38,32,29,090,44,04,43,303,43,24,19,151,43*7B
$GPGSV,3,3,11,10,18,288,32,23,76,047,40,11,06,160,30*47
$GPGLL,4349.21942,N,01108.48205,E,101001.00,A,A*6D
$GPZDA,101001.00,05,04,2011,00,00*64
$GPRMC,101002.00,A,4349.21964,N,01108.48275,E,1.559,118.79,050411,,,A*65
$GPVTG,118.79,T,,M,1.559,N,2.889,K,A*38
$GPGGA,101002.00,4349.21964,N,01108.48275,E,1,09,1.18,38.9,M,47.6,M,,*6E
$GPGSA,A,3,17,13,20,02,31,32,04,23,11,,,,1.99,1.18,1.60*0E
$GPGSV,3,1,11,17,20,240,34,13,64,233,35,20,56,087,41,02,08,318,36*74
$GPGSV,3,2,11,31,10,033,35,32,29,090,41,04,43,303,39,24,19,151,38*72
$GPGSV,3,3,11,10,18,288,36,23,76,047,30,11,06,160,29*4C
$GPGLL,4349.21964,N,01108.48275,E,101002.00,A,A*6D
$GPZDA,101002.00,05,04,2011,00,00*67
$GPRMC,101003.00,A,4349.21945,N,01108.48297,E,1.530,118.66,050411,,,A*6A
$GPVTG,118.66,T,,M,1.530,N,2.834,K,A*3F
$GPGGA,101003.00,4349.21945,N,01108.48297,E,1,09,1.98,38.8,M,47.6,M,,*69
$GPGSA,A,3,17,13,20,02,31,32,04,23,11,,,,2.90,1.98,2.12*0A
$GPGSV,3,1,11,17,20,240,32,13,64,233,36,20,56,087,40,02,08,318,40*71
$GPGSV,3,2,11,31,10,033,43,32,29,090,43,04,43,303,41,24,19,151,46*77
$GPGSV,3,3,11,10,18,288,31,23,76,047,37,11,06,160,33*47
$GPGLL,4349.21945,N,01108.48297,E,101003.00,A,A*63
$GPZDA,101003.00,05,04,2011,00,00*66
$GPRMC,101004.00,A,4349.21978,N,01108.48326,E,0.210,117.96,050411,,,A*6C
$GPVTG,117.96,T,,M,0.210,N,0.389,K,A*34
$GPGGA,101004.00,4349.21978,N,01108.48326,E,1,08,0.85,38.6,M,47.6,M,,*69
$GPGSA,A,3,17,13,20,02,31,32,04,11,,,,,1.46,0.85,1.19*06
$GPGSV,3,1,11,17,20,240,35,13,64,233,40,20,56,087,42,02,08,318,40*75
$GPGSV,3,2,11,31,10,033,38,32,29,090,45,04,43,303,44,24,19,151,39*70
$GPGSV,3,3,11,10,18,288,34,23,76,047,,11,06,160,34*41
$GPGLL,4349.21978,N,01108.48326,E,101004.00,A,A*61
$GPZDA,101004.00,05,04,2011,00,00*61
$GPRMC,101005.00,A,4349.21982,N,01108.48303,E,0.010,,050411,,,A*7B
$GPVTG,,T,,M,0.010,N,0.018,K,A*2B
$GPGGA,101005.00,4349.21982,N,01108.48303,E,1,08,0.98,38.3,M,47.6,M,,*63
$GPGSA,A,3,17,13,20,02,31,32,04,11,,,,,1.57,0.98,1.23*03
$GPGSV,3,1,11,17,20,240,32,13,64,233,38,20,56,087,42,02,08,318,40*7D
$GPGSV,3,2,11,31,10,033,40,32,29,090,43,04,43,303,46,24,19,151,40*75
$GPGSV,3,3,11,10,18,288,35,23,76,047,,11,06,160,34*40
$GPGLL,4349.21982,N,01108.48303,E,101005.00,A,A*62
$GPZDA,101005.00,05,04,2011,00,00*60
$GPRMC,101006.00,A,4349.21991,N,01108.48281,E,0.009,,050411,,,A*79
$GPVTG,,T,,M,0.009,N,0.017,K,A*2C
$GPGGA,101006.00,4349.21991,N,01108.48281,E,1,08,0.98,38.1,M,47.6,M,,*6B
$GPGSA,A,3,17,13,20,02,31,32,04,11,,,,,1.57,0.98,1.23*03
$GPGSV,3,1,11,17,20,240,30,13,64,233,38,20,56,087,42,02,08,318,39*71
$GPGSV,3,2,11,31,10,033,41,32,29,090,46,04,43,303,47,24,19,151,40*70
$GPGSV,3,3,11,10,18,288,35,23,76,047,26,11,06,160,32*42
$GPGLL,4349.21991,N,01108.48281,E,101006.00,A,A*68
$GPZDA,101006.00,05,04,2011,00,00*63
$GPRMC,101007.00,A,4349.22022,N,01108.48280,E,0.125,114.43,050411,,,A*69
$GPVTG,114.43,T,,M,0.125,N,0.232,K,A*3B
$GPGGA,101007.00,4349.22022,N,01108.48280,E,1,09,1.18,38.0,M,47.6,M,,*60
$GPGSA,A,3,17,13,20,02,31,32,04,23,11,,,,1.99,1.18,1.60*0E
$GPGSV,3,1,11,17,20,240,33,13,64,233,42,20,56,087,40,02,08,318,41*72
$GPGSV,3,2,11,31,10,033,40,32,29,090,46,04,43,303,46,24,19,151,39*7E
$GPGSV,3,3,11,10,18,288,35,23,76,047,35,11,06,160,22*41
$GPGLL,4349.22022,N,01108.48280,E,101007.00,A,A*6A
$GPZDA,101007.00,05,04,2011,00,00*62
$GPRMC,101008.00,A,4349.22048,N,01108.48286,E,0.046,111.17,050411,,,A*6C
$GPVTG,111.17,T,,M,0.046,N,0.085,K,A*35
$GPGGA,101008.00,4349.22048,N,01108.48286,E,1,09,1.18,38.0,M,47.6,M,,*65
$GPGSA,A,3,17,13,20,02,31,32,04,23,11,,,,1.99,1.18,1.60*0E
$GPGSV,3,1,11,17,20,240,32,13,64,233,40,20,56,087,39,02,08,318,40*7E
$GPGSV,3,2,11,31,10,033,38,32,29,090,45,04,43,303,44,24,19,151,38*71
$GPGSV,3,3,11,10,18,288,34,23,76,047,30,11,06,160,28*4F
$GPGLL,4349.22048,N,01108.48286,E,101008.00,A,A*6F
$GPZDA,101008.00,05,04,2011,00,00*6D
$GPRMC,101009.00,A,4349.22075,N,01108.48293,E,0.018,,050411,,,A*75
$GPVTG,,T,,M,0.018,N,0.034,K,A*2D
$GPGGA,101009.00,4349.22075,N,01108.48293,E,1,09,1.18,37.9,M,47.6,M,,*68
$GPGSA,A,3,17,13,20,02,31,32,04,23,11,,,,1.99,1.18,1.60*0E
$GPGSV,3,1,11,17,20,240,33,13,64,233,40,20,56,087,42,02,08,318,41*72
$GPGSV,3,2,11,31,10,033,39,32,29,090,47,04,43,303,45,24,19,151,39*72
$GPGSV,3,3,11,10,18,288,36,23,76,047,29,11,06,160,31*4D
$GPGLL,4349.22075,N,01108.48293,E,101009.00,A,A*64
$GPZDA,101009.00,05,04,2011,00,00*6C
$GPRMC,101010.00,A,4349.22121,N,01108.48311,E,0.032,107.33,050411,,,A*66
$GPVTG,107.33,T,,M,0.032,N,0.059,K,A*36
$GPGGA,101010.00,4349.22121,N,01108.48311,E,1,09,1.18,38.0,M,47.6,M,,*6D
$GPGSA,A,3,17,13,20,02,31,32,04,23,11,,,,1.99,1.18,1.60*0E
$GPGSV,3,1,11,17,20,240,36,13,64,233,41,20,56,087,41,02,08,318,41*75
$GPGSV,3,2,11,31,10,033,38,32,29,090,47,04,43,303,45,24,19,151,39*73
$GPGSV,3,3,11,10,18,288,36,23,76,047,24,11,06,160,31*40
$GPGLL,4349.22121,N,01108.48311,E,101010.00,A,A*67
$GPZDA,101010.00,05,04,2011,00,00*64
$GPRMC,101011.00,A,4349.22134,N,01108.48309,E,0.024,111.23,050411,,,A*6B
$GPVTG,111.23,T,,M,0.024,N,0.044,K,A*3B
$GPGGA,101011.00,4349.22134,N,01108.48309,E,1,09,2.45,37.7,M,47.6,M,,*62
$GPGSA,A,3,17,13,20,02,31,32,04,23,11,,,,3.90,2.45,3.04*0E
$GPGSV,3,1,11,17,20,240,34,13,64,233,38,20,56,087,41,02,08,318,41*79
$GPGSV,3,2,11,31,10,033,43,32,29,090,44,04,44,302,46,24,19,151,43*74
$GPGSV,3,3,11,10,18,288,35,23,76,047,25,11,06,160,31*42
$GPGLL,4349.22134,N,01108.48309,E,101011.00,A,A*6B
$GPZDA,101011.00,05,04,2011,00,00*65
$GPRMC,101012.00,A,4349.22139,N,01108.48301,E,0.050,116.53,050411,,,A*6E
$GPVTG,116.53,T,,M,0.050,N,0.093,K,A*32
$GPGGA,101012.00,4349.22139,N,01108.48301,E,1,09,2.45,37.4,M,47.6,M,,*67
$GPGSA,A,3,17,13,20,02,31,32,04,23,11,,,,3.90,2.45,3.04*0E
$GPGSV,3,1,11,17,20,240,33,13,64,233,40,20,56,087,41,02,08,318,40*70
$GPGSV,3,2,11,31,10,033,43,32,29,090,41,04,44,302,44,24,19,151,45*75
$GPGSV,3,3,11,10,18,288,34,23,76,047,34,11,06,160,30*42
$GPGLL,4349.22139,N,01108.48301,E,101012.00,A,A*6D
$GPZDA,101012.00,05,04,2011,00,00*66
$GPRMC,101013.00,A,4349.22142,N,01108.48294,E,0.140,118.03,050411,,,A*65
$GPVTG,118.03,T,,M,0.140,N,0.259,K,A*3D
$GPGGA,101013.00,4349.22142,N,01108.48294,E,1,09,1.98,36.9,M,47.6,M,,*68
$GPGSA,A,3,17,13,20,02,31,32,04,23,11,,,,2.90,1.98,2.12*0A
$GPGSV,3,1,11,17,20,240,31,13,64,233,39,20,56,087,43,02,08,318,40*7E
$GPGSV,3,2,11,31,10,033,39,32,29,090,42,04,44,302,41,24,19,151,45*7E
$GPGSV,3,3,11,10,18,288,35,23,76,047,39,11,06,160,30*4E
$GPGLL,4349.22142,N,01108.48294,E,101013.00,A,A*6D
$GPZDA,101013.00,05,04,2011,00,00*67
$GPRMC,101014.00,A,4349.22191,N,01108.48347,E,1.119,117.47,050411,,,A*61
$GPVTG,117.47,T,,M,1.119,N,2.074,K,A*30
$GPGGA,101014.00,4349.22191,N,01108.48347,E,1,09,1.30,37.5,M,47.6,M,,*61
$GPGSA,A,3,17,13,20,02,31,32,04,23,11,,,,1.91,1.30,1.40*0E
$GPGSV,3,1,11,17,20,240,32,13,64,233,40,20,56,087,43,02,08,318,35*71
$GPGSV,3,2,11,31,10,033,41,32,29,090,42,04,44,302,41,24,19,151,42*76
$GPGSV,3,3,11,10,18,288,34,23,76,047,39,11,06,160,31*4E
$GPGLL,4349.22191,N,01108.48347,E,101014.00,A,A*6B
$GPZDA,101014.00,05,04,2011,00,00*60
$GPRMC,101015.00,A,4349.22227,N,01108.48427,E,2.074,83.37,050411,,,A*5D
$GPVTG,83.37,T,,M,2.074,N,3.843,K,A*0F
$GPGGA,101015.00,4349.22227,N,01108.48427,E,1,09,1.40,38.2,M,47.6,M,,*60
$GPGSA,A,3,17,13,20,02,31,32,04,23,11,,,,2.40,1.40,1.94*0F
$GPGSV,3,1,11,17,20,240,34,13,64,233,41,20,56,087,44,02,08,318,34*70
$GPGSV,3,2,11,31,10,033,37,32,29,090,43,04,44,302,38,24,19,151,43*79
$GPGSV,3,3,11,10,18,288,31,23,76,047,42,11,06,160,24*43
$GPGLL,4349.22227,N,01108.48427,E,101015.00,A,A*65
$GPZDA,101015.00,05,04,2011,00,00*61
$GPRMC,101016.00,A,4349.22210,N,01108.48486,E,2.048,120.04,050411,,,A*66
$GPVTG,120.04,T,,M,2.048,N,3.795,K,A*3C
$GPGGA,101016.00,4349.22210,N,01108.48486,E,1,09,1.14,38.3,M,47.6,M,,*6C
$GPGSA,A,3,17,13,20,02,31,32,04,23,11,,,,1.76,1.14,1.34*02
$GPGSV,3,1,11,17,20,240,32,13,64,233,38,20,56,087,44,02,08,318,36*7A
$GPGSV,3,2,11,31,10,033,35,32,29,090,42,04,44,302,37,24,19,151,42*74
$GPGSV,3,3,11,10,18,288,30,23,76,047,45,11,06,160,27*46
$GPGLL,4349.22210,N,01108.48486,E,101016.00,A,A*69
$GPZDA,101016.00,05,04,2011,00,00*62
$GPRMC,101017.00,A,4349.22186,N,01108.48555,E,1.971,122.72,050411,,,A*67
$GPVTG,122.72,T,,M,1.971,N,3.652,K,A*35
$GPGGA,101017.00,4349.22186,N,01108.48555,E,1,09,1.14,38.8,M,47.6,M,,*65
$GPGSA,A,3,17,13,20,02,31,32,04,23,11,,,,1.76,1.14,1.34*02
$GPGSV,3,1,11,17,20,240,35,13,64,233,42,20,56,087,43,02,08,318,32*73
$GPGSV,3,2,11,31,10,033,36,32,29,090,42,04,44,302,34,24,19,151,45*73
$GPGSV,3,3,11,10,18,288,35,23,76,047,45,11,06,160,30*45
$GPGLL,4349.22186,N,01108.48555,E,101017.00,A,A*6B
$GPZDA,101017.00,05,04,2011,00,00*63
$GPRMC,101018.00,A,4349.22095,N,01108.48621,E,2.971,152.69,050411,,,A*65
$GPVTG,152.69,T,,M,2.971,N,5.505,K,A*3C
$GPGGA,101018.00,4349.22095,N,01108.48621,E,1,09,1.30,39.1,M,47.6,M,,*67
$GPGSA,A,3,17,13,20,02,31,32,04,23,11,,,,1.91,1.30,1.40*0E
$GPGSV,3,1,11,17,20,240,37,13,64,233,41,20,56,087,39,02,08,318,26*7A
$GPGSV,3,2,11,31,10,033,35,32,29,090,41,04,44,302,33,24,19,151,44*75
$GPGSV,3,3,11,10,18,288,35,23,76,047,44,11,06,160,30*44
$GPGLL,4349.22095,N,01108.48621,E,101018.00,A,A*67
$GPZDA,101018.00,05,04,2011,00,00*6C
$GPRMC,101019.00,A,4349.21868,N,01108.48744,E,4.503,162.65,050411,,,A*6F
$GPVTG,162.65,T,,M,4.503,N,8.345,K,A*33
$GPGGA,101019.00,4349.21868,N,01108.48744,E,1,09,1.30,39.2,M,47.6,M,,*6E
$GPGSA,A,3,17,13,20,02,31,32,04,23,11,,,,1.91,1.30,1.40*0E
$GPGSV,3,1,11,17,20,240,34,13,64,233,43,20,56,087,38,02,08,318,28*74
$GPGSV,3,2,11,31,10,033,34,32,29,090,43,04,44,302,36,24,19,151,44*73
$GPGSV,3,3,11,10,18,288,33,23,76,047,44,11,06,160,31*43
$GPGLL,4349.21868,N,01108.48744,E,101019.00,A,A*6D
$GPZDA,101019.00,05,04,2011,00,00*6D
$GPRMC,101020.00,A,4349.21625,N,01108.48854,E,4.818,152.37,050411,,,A*6F
$GPVTG,152.37,T,,M,4.818,N,8.927,K,A*3E
$GPGGA,101020.00,4349.21625,N,01108.48854,E,1,09,1.30,39.6,M,47.6,M,,*69
$GPGSA,A,3,17,13,20,02,31,32,04,23,11,,,,1.91,1.30,1.40*0E
$GPGSV,3,1,11,17,20,240,37,13,64,234,41,20,56,087,38,02,08,318,32*79
$GPGSV,3,2,11,31,10,033,36,32,29,090,42,04,44,302,39,24,19,151,40*7B
$GPGSV,3,3,11,10,18,288,33,23,76,047,41,11,06,160,30*47
$GPGLL,4349.21625,N,01108.48854,E,101020.00,A,A*6E
$GPZDA,101020.00,05,04,2011,00,00*67
$GPRMC,101021.00,A,4349.21579,N,01108.48886,E,1.142,151.27,050411,,,A*6A
$GPVTG,151.27,T,,M,1.142,N,2.116,K,A*3F
$GPGGA,101021.00,4349.21579,N,01108.48886,E,1,09,1.30,39.9,M,47.6,M,,*62
$GPGSA,A,3,17,13,20,02,31,32,04,23,11,,,,2.09,1.30,1.63*0D
$GPGSV,3,1,11,17,20,240,35,13,64,234,38,20,56,087,44,02,08,318,37*7B
$GPGSV,3,2,11,31,10,033,37,32,29,090,43,04,44,302,40,24,19,151,41*74
$GPGSV,3,3,11,10,18,288,34,23,76,047,40,11,06,160,30*41
$GPGLL,4349.21579,N,01108.48886,E,101021.00,A,A*6A
$GPZDA,101021.00,05,04,2011,00,00*66
$GPRMC,101022.00,A,4349.21511,N,01108.48951,E,2.969,141.36,050411,,,A*6F
$GPVTG,141.36,T,,M,2.969,N,5.502,K,A*3A
$GPGGA,101022.00,4349.21511,N,01108.48951,E,1,09,1.16,40.1,M,47.6,M,,*66
$GPGSA,A,3,17,13,20,02,31,32,04,23,11,,,,1.80,1.16,1.37*0A
$GPGSV,3,1,11,17,20,240,33,13,64,234,38,20,56,087,42,02,08,318,34*78
$GPGSV,3,2,11,31,10,033,35,32,29,090,43,04,44,302,36,24,19,151,44*72
$GPGSV,3,3,11,10,18,288,31,23,76,047,40,11,06,160,31*45
$GPGLL,4349.21511,N,01108.48951,E,101022.00,A,A*6C
$GPZDA,101022.00,05,04,2011,00,00*65
$GPRMC,101023.00,A,4349.21490,N,01108.48978,E,3.199,151.71,050411,,,A*69
$GPVTG,151.71,T,,M,3.199,N,5.928,K,A*3A
$GPGGA,101023.00,4349.21490,N,01108.48978,E,1,09,2.35,39.9,M,47.6,M,,*60
$GPGSA,A,3,17,13,20,02,31,32,04,23,11,,,,3.17,2.35,2.13*01
$GPGSV,3,1,11,17,20,240,33,13,64,234,41,20,56,087,44,02,08,318,37*73
$GPGSV,3,2,11,31,10,033,30,32,29,090,46,04,44,302,38,24,19,151,46*7E
$GPGSV,3,3,11,10,18,288,30,23,76,047,45,11,06,160,26*47
$GPGLL,4349.21490,N,01108.48978,E,101023.00,A,A*6E
$GPZDA,101023.00,05,04,2011,00,00*64
$GPRMC,101024.00,A,4349.21508,N,01108.49017,E,2.683,146.28,050411,,,A*68
$GPVTG,146.28,T,,M,2.683,N,4.971,K,A*30
$GPGGA,101024.00,4349.21508,N,01108.49017,E,1,09,2.35,39.8,M,47.6,M,,*67
$GPGSA,A,3,17,13,20,02,31,32,04,23,11,,,,3.17,2.35,2.13*01
$GPGSV,3,1,11,17,20,240,31,13,64,234,38,20,56,087,44,02,08,318,34*7C
$GPGSV,3,2,11,31,10,033,23,32,29,090,45,04,44,302,35,24,19,151,45*71
$GPGSV,3,3,11,10,18,288,33,23,76,047,45,11,06,160,23*41
$GPGLL,4349.21508,N,01108.49017,E,101024.00,A,A*68
$GPZDA,101024.00,05,04,2011,00,00*63
$GPRMC,101025.00,A,4349.21445,N,01108.49127,E,3.458,156.52,050411,,,A*6A
$GPVTG,156.52,T,,M,3.458,N,6.407,K,A*37
$GPGGA,101025.00,4349.21445,N,01108.49127,E,1,09,1.98,39.8,M,47.6,M,,*68
$GPGSA,A,3,17,13,20,02,31,32,04,23,11,,,,2.90,1.98,2.12*0A
$GPGSV,3,1,11,17,20,240,29,13,64,234,39,20,56,087,39,02,08,318,25*7E
$GPGSV,3,2,11,31,10,033,23,32,29,090,40,04,44,302,35,24,19,151,40*71
$GPGSV,3,3,11,10,18,288,32,23,76,047,43,11,06,160,20*45
$GPGLL,4349.21445,N,01108.49127,E,101025.00,A,A*63
$GPZDA,101025.00,05,04,2011,00,00*62
$GPRMC,101026.00,A,4349.21428,N,01108.49273,E,3.492,155.46,050411,,,A*60
$GPVTG,155.46,T,,M,3.492,N,6.470,K,A*37
$GPGGA,101026.00,4349.21428,N,01108.49273,E,1,09,1.81,39.9,M,47.6,M,,*6B
$GPGSA,A,3,17,13,20,02,31,32,04,23,11,,,,2.69,1.81,1.99*04
$GPGSV,3,1,11,17,20,240,34,13,64,234,40,20,56,087,34,02,08,318,28*7C
$GPGSV,3,2,11,31,10,033,23,32,29,090,43,04,44,302,37,24,19,151,38*7F
$GPGSV,3,3,11,10,18,288,30,23,76,047,44,11,06,160,24*44
$GPGLL,4349.21428,N,01108.49273,E,101026.00,A,A*69
$GPZDA,101026.00,05,04,2011,00,00*61
$GPRMC,101027.00,A,4349.21437,N,01108.49364,E,1.512,153.56,050411,,,A*64
$GPVTG,153.56,T,,M,1.512,N,2.803,K,A*37
$GPGGA,101027.00,4349.21437,N,01108.49364,E,1,09,1.81,39.9,M,47.6,M,,*63
$GPGSA,A,3,17,13,20,02,31,32,04,23,11,,,,2.69,1.81,2.00*07
$GPGSV,3,1,11,17,20,240,37,13,64,234,40,20,55,088,38,02,08,318,32*74
$GPGSV,3,2,11,31,10,033,24,32,29,090,42,04,44,302,40,24,19,151,33*72
$GPGSV,3,3,11,10,18,288,33,23,76,047,40,11,06,160,23*44
$GPGLL,4349.21437,N,01108.49364,E,101027.00,A,A*61
$GPZDA,101027.00,05,04,2011,00,00*60
$GPRMC,101028.00,A,4349.21383,N,01108.49430,E,1.650,153.36,050411,,,A*66
$GPVTG,153.36,T,,M,1.650,N,3.057,K,A*3C
$GPGGA,101028.00,4349.21383,N,01108.49430,E,1,09,1.81,39.8,M,47.6,M,,*63
$GPGSA,A,3,17,13,20,02,31,32,04,23,11,,,,2.69,1.81,2.00*07
$GPGSV,3,1,11,17,20,240,34,13,64,234,38,20,55,088,41,02,08,318,27*72
$GPGSV,3,2,11,31,10,033,23,32,29,090,44,04,44,302,36,24,19,151,31*70
$GPGSV,3,3,11,10,18,288,31,23,76,047,35,11,06,160,24*43
$GPGLL,4349.21383,N,01108.49430,E,101028.00,A,A*60
$GPZDA,101028.00,05,04,2011,00,00*6F
$GPRMC,101029.00,A,4349.21272,N,01108.49503,E,2.315,153.89,050411,,,A*6A
$GPVTG,153.89,T,,M,2.315,N,4.290,K,A*31
$GPGGA,101029.00,4349.21272,N,01108.49503,E,1,09,2.35,39.7,M,47.6,M,,*6F
$GPGSA,A,3,17,13,20,02,31,32,04,23,11,,,,3.17,2.35,2.13*01
$GPGSV,3,1,11,17,20,240,35,13,64,234,41,20,55,088,44,02,08,318,32*7C
$GPGSV,3,2,11,31,10,033,22,32,29,090,44,04,44,302,39,24,19,151,26*78
$GPGSV,3,3,11,10,18,288,33,23,76,047,41,11,06,160,23*45
$GPGLL,4349.21272,N,01108.49503,E,101029.00,A,A*6F
$GPZDA,101029.00,05,04,2011,00,00*6E
$GPRMC,101030.00,A,4349.21189,N,01108.49605,E,3.349,150.89,050411,,,A*6B
$GPVTG,150.89,T,,M,3.349,N,6.205,K,A*34
$GPGGA,101030.00,4349.21189,N,01108.49605,E,1,09,1.81,39.7,M,47.6,M,,*69
$GPGSA,A,3,17,13,20,02,31,32,04,23,11,,,,2.69,1.81,2.00*07
$GPGSV,3,1,12,17,20,240,35,13,64,234,42,20,55,088,45,02,08,318,30*7F
$GPGSV,3,2,12,31,10,033,23,32,29,090,45,04,44,302,38,24,19,151,29*75
$GPGSV,3,3,12,37,,,35,10,18,288,32,23,76,047,45,11,06,160,23*41
$GPGLL,4349.21189,N,01108.49605,E,101030.00,A,A*65
$GPZDA,101030.00,05,04,2011,00,00*66
$GPRMC,101031.00,A,4349.21183,N,01108.49679,E,1.822,149.05,050411,,,A*63
$GPVTG,149.05,T,,M,1.822,N,3.377,K,A*3D
$GPGGA,101031.00,4349.21183,N,01108.49679,E,1,09,1.81,39.7,M,47.6,M,,*69
$GPGSA,A,3,17,13,20,02,31,32,04,23,11,,,,2.69,1.81,2.00*07
$GPGSV,3,1,12,17,20,240,34,13,64,234,40,20,55,088,42,02,08,318,27*7D
$GPGSV,3,2,12,31,10,033,23,32,29,090,40,04,44,302,34,24,19,151,30*74
$GPGSV,3,3,12,37,,,36,10,18,288,30,23,76,047,43,11,06,160,24*41
$GPGLL,4349.21183,N,01108.49679,E,101031.00,A,A*65
$GPZDA,101031.00,05,04,2011,00,00*67
$GPRMC,101032.00,A,4349.21059,N,01108.49746,E,3.762,155.45,050411,,,A*6B
$GPVTG,155.45,T,,M,3.762,N,6.971,K,A*34
$GPGGA,101032.00,4349.21059,N,01108.49746,E,1,09,1.81,39.6,M,47.6,M,,*60
$GPGSA,A,3,17,13,20,02,31,32,04,23,11,,,,2.69,1.81,1.99*04
$GPGSV,3,1,12,17,20,240,35,13,64,234,40,20,55,088,42,02,08,318,27*7C
$GPGSV,3,2,12,31,10,033,24,32,29,090,43,04,44,302,36,24,19,151,32*70
$GPGSV,3,3,12,37,,,37,10,18,288,32,23,76,047,46,11,06,160,24*47
$GPGLL,4349.21059,N,01108.49746,E,101032.00,A,A*6D
$GPZDA,101032.00,05,04,2011,00,00*64
$GPRMC,101033.00,A,4349.20969,N,01108.49804,E,3.502,162.88,050411,,,A*69
$GPVTG,162.88,T,,M,3.502,N,6.489,K,A*3F
$GPGGA,101033.00,4349.20969,N,01108.49804,E,1,09,1.81,39.5,M,47.6,M,,*60
$GPGSA,A,3,17,13,20,02,31,32,04,23,11,,,,2.69,1.81,2.00*07
$GPGSV,3,1,12,17,20,240,38,13,64,234,40,20,55,088,38,02,08,318,23*78
$GPGSV,3,2,12,31,10,033,31,32,29,090,41,04,44,302,36,24,19,151,30*74
$GPGSV,3,3,12,37,,,30,10,18,288,33,23,76,047,47,11,06,160,24*40
$GPGLL,4349.20969,N,01108.49804,E,101033.00,A,A*6E
$GPZDA,101033.00,05,04,2011,00,00*65
$GPRMC,101034.00,A,4349.20865,N,01108.49866,E,4.609,165.02,050411,,,A*6D
$GPVTG,165.02,T,,M,4.609,N,8.540,K,A*3F
$GPGGA,101034.00,4349.20865,N,01108.49866,E,1,09,1.81,39.4,M,47.6,M,,*6F
$GPGSA,A,3,17,13,20,02,31,32,04,23,11,,,,2.69,1.81,1.99*04
$GPGSV,3,1,12,17,20,240,33,13,64,234,41,20,55,088,38,02,08,318,30*70
$GPGSV,3,2,12,31,10,033,22,32,29,090,41,04,44,302,34,24,19,151,30*74
$GPGSV,3,3,12,37,,,26,10,18,288,34,23,76,047,43,11,06,160,18*4B
$GPGLL,4349.20865,N,01108.49866,E,101034.00,A,A*60
$GPZDA,101034.00,05,04,2011,00,00*62
$GPRMC,101035.00,A,4349.20805,N,01108.49936,E,2.555,157.91,050411,,,A*69
$GPVTG,157.91,T,,M,2.555,N,4.735,K,A*34
$GPGGA,101035.00,4349.20805,N,01108.49936,E,1,09,1.81,39.2,M,47.6,M,,*6A
$GPGSA,A,3,17,13,20,02,31,32,04,23,11,,,,2.69,1.81,1.99*04
$GPGSV,3,1,11,17,20,240,37,13,64,234,38,20,55,088,40,02,08,318,28*7F
$GPGSV,3,2,11,31,10,033,23,32,29,090,40,04,44,302,38,24,19,151,30*7B
$GPGSV,3,3,11,10,18,288,31,23,76,047,38,11,06,160,25*4F
$GPGLL,4349.20805,N,01108.49936,E,101035.00,A,A*63
$GPZDA,101035.00,05,04,2011,00,00*63
$GPRMC,101036.00,A,4349.20751,N,01108.50012,E,2.313,157.50,050411,,,A*6A
$GPVTG,157.50,T,,M,2.313,N,4.286,K,A*30
$GPGGA,101036.00,4349.20751,N,01108.50012,E,1,09,1.81,39.2,M,47.6,M,,*60
$GPGSA,A,3,17,13,20,02,31,32,04,23,11,,,,2.69,1.81,2.00*07
$GPGSV,3,1,11,17,20,240,37,13,64,234,42,20,55,088,42,02,08,318,24*7C
$GPGSV,3,2,11,31,10,033,27,32,29,090,45,04,44,302,39,24,19,151,35*7E
$GPGSV,3,3,11,10,18,288,30,23,76,047,37,11,06,160,29*4D
$GPGLL,4349.20751,N,01108.50012,E,101036.00,A,A*69
$GPZDA,101036.00,05,04,2011,00,00*60
$GPRMC,101037.00,A,4349.20753,N,01108.50076,E,1.006,153.67,050411,,,A*6F
$GPVTG,153.67,T,,M,1.006,N,1.864,K,A*37
$GPGGA,101037.00,4349.20753,N,01108.50076,E,1,09,1.81,39.2,M,47.6,M,,*61
$GPGSA,A,3,17,13,20,02,31,32,04,23,11,,,,2.69,1.81,2.00*07
$GPGSV,3,1,11,17,20,240,36,13,64,234,40,20,55,088,41,02,08,318,29*71
$GPGSV,3,2,11,31,10,033,20,32,29,090,42,04,44,302,35,24,19,151,29*7F
$GPGSV,3,3,11,10,18,288,26,23,76,047,39,11,06,160,23*4E
$GPGLL,4349.20753,N,01108.50076,E,101037.00,A,A*68
$GPZDA,101037.00,05,04,2011,00,00*61
$GPRMC,101038.00,A,4349.20724,N,01108.50123,E,1.152,149.31,050411,,,A*69
$GPVTG,149.31,T,,M,1.152,N,2.134,K,A*30
$GPGGA,101038.00,4349.20724,N,01108.50123,E,1,09,1.81,39.1,M,47.6,M,,*6C
$GPGSA,A,3,17,13,20,02,31,32,04,23,11,,,,2.70,1.81,2.00*0F
$GPGSV,3,1,11,17,20,240,37,13,64,234,40,20,55,088,43,02,08,318,26*7D
$GPGSV,3,2,11,31,09,033,24,32,29,090,45,04,44,302,38,24,19,151,29*79
$GPGSV,3,3,11,10,18,288,25,23,76,047,40,11,06,160,23*43
$GPGLL,4349.20724,N,01108.50123,E,101038.00,A,A*66
$GPZDA,101038.00,05,04,2011,00,00*6E
$GPRMC,101039.00,A,4349.20736,N,01108.50155,E,0.862,145.90,050411,,,A*66
$GPVTG,145.90,T,,M,0.862,N,1.597,K,A*32
$GPGGA,101039.00,4349.20736,N,01108.50155,E,1,09,1.81,38.9,M,47.6,M,,*66
$GPGSA,A,3,17,13,20,02,31,32,04,23,11,,,,2.70,1.81,2.00*0F
$GPGSV,3,1,11,17,20,240,39,13,64,234,37,20,55,088,42,02,08,318,28*7C
$GPGSV,3,2,11,31,09,033,24,32,28,090,42,04,44,302,34,24,19,151,27*7D
$GPGSV,3,3,11,10,18,288,31,23,76,047,44,11,06,160,24*45
$GPGLL,4349.20736,N,01108.50155,E,101039.00,A,A*65
$GPZDA,101039.00,05,04,2011,00,00*6F
$GPRMC,101040.00,A,4349.20682,N,01108.50210,E,2.105,141.28,050411,,,A*69
$GPVTG,141.28,T,,M,2.105,N,3.901,K,A*3E
$GPGGA,101040.00,4349.20682,N,01108.50210,E,1,09,1.81,39.1,M,47.6,M,,*6D
$GPGSA,A,3,17,13,20,02,31,32,04,23,11,,,,2.69,1.81,1.99*04
$GPGSV,3,1,11,17,20,240,36,13,64,234,34,20,55,088,45,02,08,318,27*78
$GPGSV,3,2,11,31,09,033,22,32,28,090,46,04,44,302,36,24,19,151,28*72
$GPGSV,3,3,11,10,18,288,28,23,76,047,45,11,06,160,26*4E
$GPGLL,4349.20682,N,01108.50210,E,101040.00,A,A*67
$GPZDA,101040.00,05,04,2011,00,00*61
$GPRMC,101041.00,A,4349.20576,N,01108.50287,E,1.508,142.22,050411,,,A*6D
$GPVTG,142.22,T,,M,1.508,N,2.794,K,A*3E
$GPGGA,101041.00,4349.20576,N,01108.50287,E,1,09,1.81,39.4,M,47.6,M,,*6F
$GPGSA,A,3,17,13,20,02,31,32,04,23,11,,,,2.70,1.81,2.00*0F
$GPGSV,3,1,11,17,20,240,39,13,64,234,40,20,55,088,41,02,08,318,31*77
$GPGSV,3,2,11,31,09,033,28,32,28,090,43,04,44,302,40,24,19,151,28*7C
$GPGSV,3,3,11,10,18,288,27,23,76,047,44,11,06,160,25*43
$GPGLL,4349.20576,N,01108.50287,E,101041.00,A,A*60
$GPZDA,101041.00,05,04,2011,00,00*60
$GPRMC,101042.00,A,4349.20572,N,01108.50286,E,1.481,145.96,050411,,,A*63
$GPVTG,145.96,T,,M,1.481,N,2.745,K,A*3A
$GPGGA,101042.00,4349.20572,N,01108.50286,E,1,09,1.32,39.3,M,47.6,M,,*66
$GPGSA,A,3,17,13,20,02,31,32,04,23,11,,,,2.10,1.32,1.63*07
$GPGSV,3,1,11,17,20,240,34,13,64,234,29,20,55,088,40,02,08,318,36*73
$GPGSV,3,2,11,31,09,033,28,32,28,090,42,04,44,302,44,24,19,151,22*73
$GPGSV,3,3,11,10,18,288,33,23,76,047,42,11,06,160,20*45
$GPGLL,4349.20572,N,01108.50286,E,101042.00,A,A*66
$GPZDA,101042.00,05,04,2011,00,00*63
$GPRMC,101043.00,A,4349.20573,N,01108.50280,E,1.089,149.57,050411,,,A*68
$GPVTG,149.57,T,,M,1.089,N,2.018,K,A*38
$GPGGA,101043.00,4349.20573,N,01108.50280,E,1,09,1.81,39.5,M,47.6,M,,*6E
$GPGSA,A,3,17,13,20,02,31,32,04,23,11,,,,2.70,1.81,2.00*0F
$GPGSV,3,1,11,17,20,240,41,13,64,234,40,20,55,088,35,02,08,318,24*7F
$GPGSV,3,2,11,31,09,033,30,32,28,090,41,04,44,302,44,24,19,151,22*79
$GPGSV,3,3,11,10,18,288,36,23,76,047,45,11,06,160,23*44
$GPGLL,4349.20573,N,01108.50280,E,101043.00,A,A*60
$GPZDA,101043.00,05,04,2011,00,00*62
$GPRMC,101044.00,A,4349.20619,N,01108.50287,E,0.012,,050411,,,A*74
$GPVTG,,T,,M,0.012,N,0.023,K,A*21
$GPGGA,101044.00,4349.20619,N,01108.50287,E,1,08,1.81,39.4,M,47.6,M,,*61
$GPGSA,A,3,17,13,20,02,32,04,23,11,,,,,2.70,1.81,2.00*0D
$GPGSV,3,1,11,17,20,240,38,13,64,234,40,20,55,088,39,02,08,318,26*7F
$GPGSV,3,2,11,31,09,033,,32,28,090,44,04,44,302,42,24,19,151,25*7E
$GPGSV,3,3,11,10,18,288,40,23,76,047,43,11,06,160,23*43
$GPGLL,4349.20619,N,01108.50287,E,101044.00,A,A*6F
$GPZDA,101044.00,05,04,2011,00,00*65
$GPRMC,101045.00,A,4349.20613,N,01108.50290,E,0.019,,050411,,,A*72
$GPVTG,,T,,M,0.019,N,0.036,K,A*2E
$GPGGA,101045.00,4349.20613,N,01108.50290,E,1,08,1.81,39.3,M,47.6,M,,*6B
$GPGSA,A,3,17,13,20,02,32,04,23,11,,,,,2.70,1.81,2.00*0D
$GPGSV,3,1,11,17,20,240,38,13,64,234,40,20,55,088,38,02,08,318,23*7B
$GPGSV,3,2,11,31,09,033,,32,28,090,44,04,44,302,43,24,19,151,22*78
$GPGSV,3,3,11,10,18,288,40,23,76,047,44,11,06,160,22*45
$GPGLL,4349.20613,N,01108.50290,E,101045.00,A,A*62
$GPZDA,101045.00,05,04,2011,00,00*64
$GPRMC,101046.00,A,4349.20610,N,01108.50282,E,0.037,153.29,050411,,,A*6F
$GPVTG,153.29,T,,M,0.037,N,0.068,K,A*3B
$GPGGA,101046.00,4349.20610,N,01108.50282,E,1,07,1.81,39.2,M,47.6,M,,*66
$GPGSA,A,3,17,13,20,32,04,23,11,,,,,,2.70,1.81,2.00*0F
$GPGSV,3,1,12,17,20,240,38,13,64,234,42,20,55,088,36,02,08,318,*75
$GPGSV,3,2,12,31,09,033,28,32,28,090,43,04,44,302,42,24,19,151,24*71
$GPGSV,3,3,12,10,18,288,35,07,10,181,,23,76,047,45,11,06,160,21*78
$GPGLL,4349.20610,N,01108.50282,E,101046.00,A,A*61
$GPZDA,101046.00,05,04,2011,00,00*67
$GPRMC,101047.00,A,4349.20608,N,01108.50269,E,0.024,157.16,050411,,,A*68
$GPVTG,157.16,T,,M,0.024,N,0.044,K,A*3F
$GPGGA,101047.00,4349.20608,N,01108.50269,E,1,07,1.81,39.2,M,47.6,M,,*6B
$GPGSA,A,3,17,13,20,32,04,23,11,,,,,,2.70,1.81,2.00*0F
$GPGSV,3,1,12,17,20,240,38,13,64,234,41,20,55,088,33,07,10,181,*7D
$GPGSV,3,2,12,31,09,033,22,32,28,090,4104,2011,00,00*6E
$GPRMC,101140.00,A,4349.21404,N,01108.50117,E,0.013,,050411,,,A*75
$GPVTG,,T,,M,0.013,N,0.024,K,A*27
$GPGGA,101140.00,4349.21404,N,01108.50117,E,1,11,1.17,38.8,M,47.6,M,,*6B
$GPGSA,A,3,17,13,20,07,31,32,04,10,02,23,11,,1.95,1.17,1.56*0E
$GPGSV,4,1,13,17,19,239,39,13,65,234,39,20,55,088,39,07,10,181,36*7F
$GPGSV,4,2,13,31,09,033,20,32,28,090,42,04,44,302,42,24,19,151,28*72
$GPGSV,4,3,13,30,02,074,,10,19,288,36,02,08,318,26,23,76,047,43*70
$GPGSV,4,4,13,11,06,160,26*4E
$GPGLL,4349.21404,N,01108.50117,E,101140.00,A,A*6F
$GPZDA,101140.00,05,04,2011,00,00*60
$GPRMC,101141.00,A,4349.21414,N,01108.50129,E,0.017,,050411,,,A*7C
$GPVTG,,T,,M,0.017,N,0.031,K,A*27
$GPGGA,101141.00,4349.21414,N,01108.50129,E,1,11,1.17,39.1,M,47.6,M,,*6E
$GPGSA,A,3,17,13,20,07,31,32,04,10,02,23,11,,1.95,1.17,1.56*0E
$GPGSV,4,1,13,17,19,239,39,13,65,234,39,20,55,088,42,07,10,181,37*72
$GPGSV,4,2,13,31,09,033,24,32,28,090,44,04,44,302,40,24,19,151,30*7B
$GPGSV,4,3,13,30,02,074,,10,19,288,41,02,08,318,16,23,76,047,39*7E
$GPGSV,4,4,13,11,06,160,26*4E
$GPGLL,4349.21414,N,01108.50129,E,101141.00,A,A*62
$GPZDA,101141.00,05,04,2011,00,00*61
$GPRMC,101142.00,A,4349.21421,N,01108.50138,E,0.016,,050411,,,A*78
$GPVTG,,T,,M,0.016,N,0.030,K,A*27
$GPGGA,101142.00,4349.21421,N,01108.50138,E,1,11,1.17,39.4,M,47.6,M,,*6E
$GPGSA,A,3,17,13,20,07,31,32,04,10,02,23,11,,1.95,1.17,1.56*0E
$GPGSV,4,1,13,17,19,239,38,13,65,234,38,20,55,088,41,07,10,181,35*73
$GPGSV,4,2,13,31,09,033,28,32,28,090,42,04,44,302,40,24,19,151,28*78
$GPGSV,4,3,13,30,02,074,,10,19,288,40,02,08,318,20,23,76,047,40*74
$GPGSV,4,4,13,11,06,160,25*4D
$GPGLL,4349.21421,N,01108.50138,E,101142.00,A,A*67
$GPZDA,101142.00,05,04,2011,00,00*62
$GPRMC,101143.00,A,4349.21423,N,01108.50146,E,0.016,,050411,,,A*72
$GPVTG,,T,,M,0.016,N,0.030,K,A*27
$GPGGA,101143.00,4349.21423,N,01108.50146,E,1,11,1.17,39.9,M,47.6,M,,*69
$GPGSA,A,3,17,13,20,07,31,32,04,10,02,23,11,,1.95,1.17,1.56*0E
$GPGSV,4,1,13,17,19,239,40,13,65,234,40,20,55,088,42,07,10,181,37*72
$GPGSV,4,2,13,31,09,033,28,32,28,090,44,04,44,302,41,24,19,151,31*77
$GPGSV,4,3,13,30,02,074,,10,19,288,40,02,08,318,23,23,76,047,44*73
$GPGSV,4,4,13,11,06,160,26*4E
$GPGLL,4349.21423,N,01108.50146,E,101143.00,A,A*6D
$GPZDA,101143.00,05,04,2011,00,00*63
$GPRMC,101144.00,A,4349.21424,N,01108.50149,E,0.014,,050411,,,A*7F
$GPVTG,,T,,M,0.014,N,0.026,K,A*22
$GPGGA,101144.00,4349.21424,N,01108.50149,E,1,11,1.17,40.3,M,47.6,M,,*62
$GPGSA,A,3,17,13,20,07,31,32,04,10,02,23,11,,1.95,1.17,1.56*0E
$GPGSV,4,1,13,17,19,239,38,13,65,234,39,20,55,088,41,07,10,181,36*71
$GPGSV,4,2,13,31,09,033,30,32,28,090,44,04,44,302,40,24,19,151,23*7C
$GPGSV,4,3,13,30,02,074,,10,19,288,39,02,08,318,29,23,76,047,44*77
$GPGSV,4,4,13,11,06,160,26*4E
$GPGLL,4349.21424,N,01108.50149,E,101144.00,A,A*62
$GPZDA,101144.00,05,04,2011,00,00*64
$GPRMC,101145.00,A,4349.21423,N,01108.50153,E,0.022,149.24,050411,,,A*63
$GPVTG,149.24,T,,M,0.022,N,0.041,K,A*32
$GPGGA,101145.00,4349.21423,N,01108.50153,E,1,11,1.17,40.8,M,47.6,M,,*64
$GPGSA,A,3,17,13,20,07,31,32,04,10,02,23,11,,1.95,1.17,1.56*0E
