$PGLOR,RID,GLL,182,5,023*4D
$GPGGA,235946.99,,,,,00,00,5.0,,M,0.0001999,M,0.0020199,*57
$GPRMC,235946.99,V,,,,,,,120180,,,N*78
$GPGSV,1,1,01,21,,,46*79
$GPGSA,A,1,,,,,,,,,,,,,11.2,5.0,10.0*36
$PGLOR,IGR,91.8,7,180555,4,4,0,3*3C
$GPGGA,235946.99,,,,,00,00,5.0,,M,0.0001999,M,0.0020199,*57
$GPRMC,235946.99,V,,,,,,,120180,,,N*78
$GPGSV,1,1,02,18,,,35,21,,,43*70
$GPGSA,A,1,,,,,,,,,,,,,11.2,5.0,10.0*36
$GPGGA,235946.99,,,,,00,00,5.0,,M,0.0001999,M,0.0020199,*57
$GPRMC,235946.99,V,,,,,,,120180,,,N*78
$GPGSV,1,1,02,18,,,33,21,,,35*77
$GPGSA,A,1,,,,,,,,,,,,,11.2,5.0,10.0*36
$GPGGA,235946.99,,,,,00,00,5.0,,M,0.0001999,M,0.0020199,*57
$GPRMC,235946.99,V,,,,,,,120180,,,N*78
$GPGSV,1,1,02,18,,,36,21,,,34*73
$GPGSA,A,1,,,,,,,,,,,,,11.2,5.0,10.0*36
$GPGGA,235946.99,,,,,00,00,5.0,,M,0.0001999,M,0.0020199,*57
$GPRMC,235946.99,V,,,,,,,120180,,,N*78
$GPGSV,1,1,02,18,,,35,21,,,37*73
$GPGSA,A,1,,,,,,,,,,,,,11.2,5.0,10.0*36
$GPGGA,235946.99,,,,,00,00,5.0,,M,0.0001999,M,0.0020199,*57
$GPRMC,235946.99,V,,,,,,,120180,,,N*78
$GPGSV,1,1,02,18,,,36,21,,,39*7E
$GPGSA,A,1,,,,,,,,,,,,,11.2,5.0,10.0*36
$GPGGA,235946.99,,,,,00,00,5.0,,M,0.0001999,M,0.0020199,*57
$GPRMC,235946.99,V,,,,,,,120180,,,N*78
$GPGSV,1,1,02,18,,,43,21,,,35*70
$GPGSA,A,1,,,,,,,,,,,,,11.2,5.0,10.0*36
$GPGGA,235946.99,,,,,00,00,5.0,,M,0.0001999,M,0.0020199,*57
$GPRMC,235946.99,V,,,,,,,120180,,,N*78
$GPGSV,1,1,03,18,,,40,19,,,35,21,,,33*7A
$GPGSA,A,1,,,,,,,,,,,,,11.2,5.0,10.0*36
$GPGGA,235946.99,,,,,00,00,5.0,,M,0.0001999,M,0.0020199,*57
$GPRMC,235946.99,V,,,,,,,120180,,,N*78
$GPGSV,1,1,03,18,,,37,19,,,34,21,,,40*7F
$GPGSA,A,1,,,,,,,,,,,,,11.2,5.0,10.0*36
$GPGGA,235946.99,,,,,00,00,5.0,,M,0.0001999,M,0.0020199,*57
$GPRMC,235946.99,V,,,,,,,120180,,,N*78
$GPGSV,1,1,03,18,,,41,19,,,32,21,,,37*78
$GPGSA,A,1,,,,,,,,,,,,,11.2,5.0,10.0*36
$GPGGA,235946.99,,,,,00,00,5.0,,M,0.0001999,M,0.0020199,*57
$GPRMC,235946.99,V,,,,,,,120180,,,N*78
$GPGSV,1,1,03,18,,,39,19,,,34,21,,,40*71
$GPGSA,A,1,,,,,,,,,,,,,11.2,5.0,10.0*36
$GPGGA,235946.99,,,,,00,00,5.0,,M,0.0001999,M,0.0020199,*57
$GPRMC,235946.99,V,,,,,,,120180,,,N*78
$GPGSV,1,1,03,18,,,40,19,,,34,21,,,37*7F
$GPGSA,A,1,,,,,,,,,,,,,11.2,5.0,10.0*36
$GPGGA,235946.99,,,,,00,00,5.0,,M,0.0001999,M,0.0020199,*57
$GPRMC,235946.99,V,,,,,,,120180,,,N*78
$GPGSV,1,1,03,18,,,37,19,,,32,21,,,36*78
$GPGSA,A,1,,,,,,,,,,,,,11.2,5.0,10.0*36
$GPGGA,235946.99,,,,,00,00,5.0,,M,0.0001999,M,0.0020199,*57
$GPRMC,235946.99,V,,,,,,,120180,,,N*78
$GPGSV,1,1,03,18,,,37,19,,,30,21,,,39*75
$GPGSA,A,1,,,,,,,,,,,,,11.2,5.0,10.0*36
$GPGGA,235946.99,,,,,00,00,5.0,,M,0.0001999,M,0.0020199,*57
$GPRMC,235946.99,V,,,,,,,120180,,,N*78
$GPGSV,1,1,03,18,,,35,19,,,36,21,,,40*7F
$GPGSA,A,1,,,,,,,,,,,,,11.2,5.0,10.0*36
$GPGGA,235946.99,,,,,00,00,5.0,,M,0.0001999,M,0.0020199,*57
$GPRMC,235946.99,V,,,,,,,120180,,,N*78
$GPGSV,1,1,03,18,,,32,19,,,34,21,,,44*7E
$GPGSA,A,1,,,,,,,,,,,,,11.2,5.0,10.0*36
$GPGGA,235946.99,,,,,00,00,5.0,,M,0.0001999,M,0.0020199,*57
$GPRMC,235946.99,V,,,,,,,120180,,,N*78
$GPGSV,1,1,04,03,,,37,18,,,33,19,,,34,21,,,41*7A
$GPGSA,A,1,,,,,,,,,,,,,11.2,5.0,10.0*36
$GPGGA,235946.99,,,,,00,00,5.0,,M,0.0001999,M,0.0020199,*57
$GPRMC,235946.99,V,,,,,,,120180,,,N*78
$GPGSV,1,1,04,03,,,37,18,,,32,19,,,33,21,,,42*7F
$GPGSA,A,1,,,,,,,,,,,,,11.2,5.0,10.0*36
$GPGGA,235946.99,,,,,00,00,5.0,,M,0.0001999,M,0.0020199,*57
$GPRMC,235946.99,V,,,,,,,120180,,,N*78
$GPGSV,1,1,04,03,,,39,18,,,32,19,,,34,21,,,42*76
$GPGSA,A,1,,,,,,,,,,,,,11.2,5.0,10.0*36
$GPGGA,235946.99,,,,,00,00,5.0,,M,0.0001999,M,0.0020199,*57
$GPRMC,235946.99,V,,,,,,,120180,,,N*78
$GPGSV,2,1,05,03,,,39,16,,,48,18,,,34,19,,,32*7A
$GPGSV,2,2,05,21,,,42*79
$GPGSA,A,1,,,,,,,,,,,,,11.2,5.0,10.0*36
$GPGGA,235946.99,,,,,00,00,5.0,,M,0.0001999,M,0.0020199,*57
$GPRMC,235946.99,V,,,,,,,120180,,,N*78
$GPGSV,2,1,05,03,,,35,16,,,44,18,,,36,19,,,33*79
$GPGSV,2,2,05,21,,,43*78
$GPGSA,A,1,,,,,,,,,,,,,11.2,5.0,10.0*36
$GPGGA,235946.99,,,,,00,00,5.0,,M,0.0001999,M,0.0020199,*57
$GPRMC,235946.99,V,,,,,,,120180,,,N*78
$GPGSV,2,1,05,03,,,33,16,,,46,18,,,34,19,,,34*78
$GPGSV,2,2,05,21,,,41*7A
$GPGSA,A,1,,,,,,,,,,,,,11.2,5.0,10.0*36
$GPGGA,235946.99,,,,,00,00,5.0,,M,0.0001999,M,0.0020199,*57
$GPRMC,235946.99,V,,,,,,,120180,,,N*78
$GPGSV,2,1,05,03,,,35,16,,,42,18,,,36,19,,,35*79
$GPGSV,2,2,05,21,,,42*79
$GPGSA,A,1,,,,,,,,,,,,,11.2,5.0,10.0*36
$GPGGA,235946.99,,,,,00,00,5.0,,M,0.0001999,M,0.0020199,*57
$GPRMC,235946.99,V,,,,,,,120180,,,N*78
$GPGSV,2,1,05,03,,,33,16,,,40,18,,,35,19,,,34*7F
$GPGSV,2,2,05,21,,,43*78
$GPGSA,A,1,,,,,,,,,,,,,11.2,5.0,10.0*36
$GPGGA,235946.99,,,,,00,00,5.0,,M,0.0001999,M,0.0020199,*57
$GPRMC,235946.99,V,,,,,,,120180,,,N*78
$GPGSV,2,1,05,03,,,37,16,,,46,18,,,35,19,,,32*7B
$GPGSV,2,2,05,21,,,44*7F
$GPGSA,A,1,,,,,,,,,,,,,11.2,5.0,10.0*36
$GPGGA,235946.99,,,,,00,00,5.0,,M,0.0001999,M,0.0020199,*57
$GPRMC,235946.99,V,,,,,,,120180,,,N*78
$GPGSV,2,1,05,03,,,35,16,,,42,18,,,35,19,,,33*7C
$GPGSV,2,2,05,21,,,41*7A
$GPGSA,A,1,,,,,,,,,,,,,11.2,5.0,10.0*36
$GPGGA,235946.99,,,,,00,00,5.0,,M,0.0001999,M,0.0020199,*57
$GPRMC,235946.99,V,,,,,,,120180,,,N*78
$GPGSV,2,1,05,03,,,35,16,,,42,18,,,33,19,,,33*7A
$GPGSV,2,2,05,21,,,42*79
$GPGSA,A,1,,,,,,,,,,,,,11.2,5.0,10.0*36
$GPGGA,235946.99,,,,,00,00,5.0,,M,0.0001999,M,0.0020199,*57
$GPRMC,235946.99,V,,,,,,,120180,,,N*78
$GPGSV,2,1,05,03,,,35,16,,,40,18,,,34,19,,,35*79
$GPGSV,2,2,05,21,,,43*78
$GPGSA,A,1,,,,,,,,,,,,,11.2,5.0,10.0*36
$GPGGA,235946.99,,,,,00,00,5.0,,M,0.0001999,M,0.0020199,*57
$GPRMC,235946.99,V,,,,,,,120180,,,N*78
$GPGSV,2,1,06,03,,,35,16,,,42,18,,,40,19,,,33*7D
$GPGSV,2,2,06,21,,,43,22,,,35*7D
$GPGSA,A,1,,,,,,,,,,,,,11.2,5.0,10.0*36
$GPGGA,235946.99,,,,,00,00,5.0,,M,0.0001999,M,0.0020199,*57
$GPRMC,235946.99,V,,,,,,,120180,,,N*78
$GPGSV,2,1,06,03,,,33,16,,,39,18,,,41,19,,,35*70
$GPGSV,2,2,06,21,,,43,22,,,35*7D
$GPGSA,A,1,,,,,,,,,,,,,11.2,5.0,10.0*36
$GPGGA,133352.98,,,,,00,00,5.0,,M,0.0001999,M,0.0020199,*5C
$GPRMC,133352.98,V,,,,,,,291107,,,N*75
$GPGSV,2,1,06,03,,,31,16,,,39,18,,,39,19,,,33*7B
$GPGSV,2,2,06,21,,,40,22,,,37*7C
$GPGSA,A,1,,,,,,,,,,,,,11.2,5.0,10.0*36
$GPGGA,133353.51,,,,,00,00,5.0,,M,0.0001999,M,0.0020199,*58
$GPRMC,133353.51,V,,,,,,,291107,,,N*71
$GPGSV,2,1,06,03,,,33,16,,,41,18,,,37,19,,,35*7E
$GPGSV,2,2,06,21,,,41,22,,,36*7C
$GPGSA,A,1,,,,,,,,,,,,,11.2,5.0,10.0*36
$GPGGA,133354.52,,,,,00,00,5.0,,M,0.0001999,M,0.0020199,*5C
$GPRMC,133354.52,V,,,,,,,291107,,,N*75
$GPGSV,2,1,06,03,,,31,16,,,43,18,,,35,19,,,34*7D
$GPGSV,2,2,06,21,,,42,22,,,37*7E
$GPGSA,A,1,,,,,,,,,,,,,11.2,5.0,10.0*36
$GPGGA,133355.53,,,,,00,00,5.0,,M,0.0001999,M,0.0020199,*5C
$GPRMC,133355.53,V,,,,,,,291107,,,N*75
$GPGSV,2,1,06,03,,,30,16,,,44,18,,,40,19,,,33*7E
$GPGSV,2,2,06,21,,,43,22,,,34*7C
$GPGSA,A,1,,,,,,,,,,,,,11.2,5.0,10.0*36
$GPGGA,133356.61,,,,,00,00,5.0,,M,0.0001999,M,0.0020199,*5E
$GPRMC,133356.61,V,,,,,,,291107,,,N*77
$GPGSV,2,1,06,03,,,30,16,,,42,18,,,40,19,,,33*78
$GPGSV,2,2,06,21,,,40,22,,,43*7F
$GPGSA,A,1,,,,,,,,,,,,,11.2,5.0,10.0*36
$GPGGA,133357.53,,,,,00,00,5.0,,M,0.0001999,M,0.0020199,*5E
$GPRMC,133357.53,V,,,,,,,291107,,,N*77
$GPGSV,2,1,06,03,,,29,16,,,43,18,,,37,19,,,34*76
$GPGSV,2,2,06,21,,,41,22,,,44*79
$GPGSA,A,1,,,,,,,,,,,,,11.2,5.0,10.0*36
$GPGGA,133358.56,,,,,00,00,5.0,,M,0.0001999,M,0.0020199,*54
$GPRMC,133358.56,V,,,,,,,291107,,,N*7D
$GPGSV,2,1,06,03,,,30,16,,,43,18,,,39,19,,,35*71
$GPGSV,2,2,06,21,,,42,22,,,41*7F
$GPGSA,A,1,,,,,,,,,,,,,11.2,5.0,10.0*36
$GPGGA,133359.63,,,,,00,00,5.0,,M,0.0001999,M,0.0020199,*53
$GPRMC,133359.63,V,,,,,,,291107,,,N*7A
$GPGSV,2,1,07,03,,,33,16,,,44,18,,,39,19,,,33*72
$GPGSV,2,2,07,21,,,43,22,,,46,27,,,33*7D
$GPGSA,A,1,,,,,,,,,,,,,11.2,5.0,10.0*36
$GPGGA,133400.53,,,,,00,00,5.0,,M,0.0001999,M,0.0020199,*5B
$GPRMC,133400.53,V,,,,,,,291107,,,N*72
$GPGSV,2,1,07,03,,,32,16,,,41,18,,,40,19,,,33*78
$GPGSV,2,2,07,21,,,44,22,,,43,27,,,32*7E
$GPGSA,A,1,,,,,,,,,,,,,11.2,5.0,10.0*36
$GPGGA,133401.53,,,,,00,00,5.0,,M,0.0001999,M,0.0020199,*5A
$GPRMC,133401.53,V,,,,,,,291107,,,N*73
$GPGSV,2,1,07,03,,,32,16,,,42,18,,,37,19,,,34*7C
$GPGSV,2,2,07,21,,,42,22,,,43,27,,,35*7F
$GPGSA,A,1,,,,,,,,,,,,,11.2,5.0,10.0*36
$GPGGA,133402.58,,,,,00,00,5.0,,M,0.0001999,M,0.0020199,*52
$GPRMC,133402.58,V,,,,,,,291107,,,N*7B
$GPGSV,2,1,07,03,,,33,16,,,43,18,,,36,19,,,35*7C
$GPGSV,2,2,07,21,,,42,22,,,40,27,,,33*7A
$GPGSA,A,1,,,,,,,,,,,,,11.2,5.0,10.0*36
$GPGGA,133403.61,,,,,00,00,5.0,,M,0.0001999,M,0.0020199,*59
$GPRMC,133403.61,V,,,,,,,291107,,,N*70
$GPGSV,2,1,07,03,,,35,16,,,43,18,,,36,19,,,35*7A
$GPGSV,2,2,07,21,,,43,22,,,42,27,,,31*7B
$GPGSA,A,1,,,,,,,,,,,,,11.2,5.0,10.0*36
$GPGGA,133404.50,,,,,00,00,5.0,,M,0.0001999,M,0.0020199,*5C
$GPRMC,133404.50,V,,,,,,,291107,,,N*75
$GPGSV,2,1,07,21,61,072,44,03,,,35,16,,,41,18,,,37*46
$GPGSV,2,2,07,19,,,33,22,,,43,27,,,35*72
$GPGSA,A,1,21,,,,,,,,,,,,11.2,5.0,10.0*35
$GPGGA,133405.54,,,,,00,00,5.0,,M,0.0001999,M,0.0020599,*5D
$GPRMC,133405.54,V,,,,,,,291107,,,N*70
$GPGSV,2,1,07,21,61,072,43,18,35,128,36,03,,,34,16,,,42*7F
$GPGSV,2,2,07,19,,,35,22,,,44,27,,,35*73
$GPGSA,A,1,18,21,,,,,,,,,,,11.2,5.0,10.0*3C
$GPGGA,133406.60,,,,,00,00,5.0,,M,0.0001999,M,0.0020599,*59
$GPRMC,133406.60,V,,,,,,,291107,,,N*74
$GPGSV,2,1,07,21,61,072,41,18,35,128,34,03,,,35,16,,,41*7D
$GPGSV,2,2,07,19,,,34,22,,,44,27,,,29*7F
$GPGSA,A,1,18,21,,,,,,,,,,,11.2,5.0,10.0*3C
$GPGGA,133407.53,,,,,00,00,5.0,,M,0.0001999,M,0.0020599,*58
$GPRMC,133407.53,V,,,,,,,291107,,,N*75
$GPGSV,2,1,07,21,61,072,47,18,35,128,32,03,,,36,16,,,43*7C
$GPGSV,2,2,07,19,,,35,22,,,42,27,,,31*71
$GPGSA,A,1,18,21,,,,,,,,,,,11.2,5.0,10.0*3C
$GPGGA,133408.55,,,,,00,00,5.0,,M,0.0001999,M,0.0020599,*51
$GPRMC,133408.55,V,,,,,,,291107,,,N*7C
$GPGSV,2,1,07,21,61,072,42,18,35,128,30,03,,,36,16,,,44*7C
$GPGSV,2,2,07,19,,,33,22,,,42,27,,,29*7E
$GPGSA,A,1,18,21,,,,,,,,,,,11.2,5.0,10.0*3C
$GPGGA,133409.58,,,,,00,00,5.0,,M,0.0001999,M,0.0020599,*5D
$GPRMC,133409.58,V,,,,,,,291107,,,N*70
$GPGSV,2,1,07,21,61,072,43,18,35,128,28,03,,,34,16,,,41*73
$GPGSV,2,2,07,19,,,34,22,,,43,27,,,28*79
$GPGSA,A,1,18,21,,,,,,,,,,,11.2,5.0,10.0*3C
$GPGGA,133410.55,,,,,00,00,5.0,,M,0.0001999,M,0.0020599,*58
$GPRMC,133410.55,V,,,,,,,291107,,,N*75
$GPGSV,2,1,07,21,61,072,43,18,35,128,34,03,,,34,16,,,42*7D
$GPGSV,2,2,07,19,,,32,22,,,44,27,,,30*71
$GPGSA,A,1,18,21,,,,,,,,,,,11.2,5.0,10.0*3C
$GPGGA,133411.55,,,,,00,00,5.0,,M,0.0001999,M,0.0020599,*59
$GPRMC,133411.55,V,,,,,,,291107,,,N*74
$GPGSV,2,1,07,21,61,072,42,18,35,128,33,03,,,34,16,,,43*7A
$GPGSV,2,2,07,19,,,33,22,,,41,27,,,27*73
$GPGSA,A,1,18,21,,,,,,,,,,,11.2,5.0,10.0*3C
$GPGGA,133412.54,,,,,00,00,5.0,,M,0.0001999,M,0.0020599,*5B
$GPRMC,133412.54,V,,,,,,,291107,,,N*76
$GPGSV,2,1,07,21,61,072,43,18,35,128,31,03,,,35,16,,,43*78
$GPGSV,2,2,07,19,,,34,22,,,42,27,,,29*79
$GPGSA,A,1,18,21,,,,,,,,,,,11.2,5.0,10.0*3C
$GPGGA,133413.56,,,,,00,00,5.0,,M,0.0001999,M,0.0020599,*58
$GPRMC,133413.56,V,,,,,,,291107,,,N*75
$GPGSV,2,1,07,21,61,072,41,18,35,128,29,03,,,33,16,,,44*72
$GPGSV,2,2,07,19,,,32,22,,,43,27,,,28*7F
$GPGSA,A,1,18,21,,,,,,,,,,,11.2,5.0,10.0*3C
$GPGGA,133414.54,,,,,00,00,5.0,,M,0.0001999,M,0.0020599,*5D
$GPRMC,133414.54,V,,,,,,,291107,,,N*70
$GPGSV,2,1,07,21,61,072,43,18,35,128,41,03,,,35,16,,,42*7E
$GPGSV,2,2,07,19,,,32,22,,,43,27,,,30*76
$GPGSA,A,1,18,21,,,,,,,,,,,11.2,5.0,10.0*3C
$GPGGA,133415.57,,,,,00,00,5.0,,M,0.0001999,M,0.0020599,*5F
$GPRMC,133415.57,V,,,,,,,291107,,,N*72
$GPGSV,2,1,07,21,61,072,40,18,35,128,39,03,,,33,16,,,43*75
$GPGSV,2,2,07,19,,,34,22,,,44,27,,,26*70
$GPGSA,A,1,18,21,,,,,,,,,,,11.2,5.0,10.0*3C
$GPGGA,133416.53,,,,,00,00,5.0,,M,0.0001999,M,0.0020599,*58
$GPRMC,133416.53,V,,,,,,,291107,,,N*75
$GPGSV,2,1,07,21,61,072,42,18,35,128,36,03,,,31,16,,,43*7A
$GPGSV,2,2,07,19,,,34,22,,,42,27,,,27*77
$GPGSA,A,1,18,21,,,,,,,,,,,11.2,5.0,10.0*3C
$GPGGA,133417.53,,,,,00,00,5.0,,M,0.0001999,M,0.0020599,*59
$GPRMC,133417.53,V,,,,,,,291107,,,N*74
$GPGSV,2,1,07,21,61,072,43,18,35,128,33,03,,,36,16,,,43*79
$GPGSV,2,2,07,19,,,32,22,,,40,27,,,26*72
$GPGSA,A,1,18,21,,,,,,,,,,,11.2,5.0,10.0*3C
$GPGGA,133418.62,,,,,00,00,5.0,,M,0.0001999,M,0.0020599,*54
$GPRMC,133418.62,V,,,,,,,291107,,,N*79
$GPGSV,2,1,07,21,61,072,44,18,35,128,40,03,,,36,16,,,43*7A
$GPGSV,2,2,07,19,,,33,22,,,39,27,,,26*7D
$GPGSA,A,1,18,21,,,,,,,,,,,11.2,5.0,10.0*3C
$GPGGA,133419.50,,,,,00,00,5.0,,M,0.0001999,M,0.0020599,*54
$GPRMC,133419.50,V,,,,,,,291107,,,N*79
$GPGSV,2,1,07,21,61,072,43,18,35,128,37,03,,,35,16,,,41*7C
$GPGSV,2,2,07,19,,,35,22,,,41,27,,,25*77
$GPGSA,A,1,18,21,,,,,,,,,,,11.2,5.0,10.0*3C
$GPGGA,133420.57,,,,,00,00,5.0,,M,0.0001999,M,0.0020599,*59
$GPRMC,133420.57,V,,,,,,,291107,,,N*74
$GPGSV,2,1,07,21,61,072,39,18,35,128,35,03,,,34,16,,,42*71
$GPGSV,2,2,07,19,,,33,22,,,37,27,,,24*71
$GPGSA,A,1,18,21,,,,,,,,,,,11.2,5.0,10.0*3C
$GPGGA,133421.51,,,,,00,00,5.0,,M,0.0001999,M,0.0020599,*5E
$GPRMC,133421.51,V,,,,,,,291107,,,N*73
$GPGSV,2,1,07,21,61,072,46,18,35,128,32,03,,,35,16,,,44*79
$GPGSV,2,2,07,19,,,34,22,,,37,27,,,23*71
$GPGSA,A,1,18,21,,,,,,,,,,,11.2,5.0,10.0*3C
$GPGGA,133423.23,,,,,00,00,5.0,,M,0.0001999,M,0.0020599,*59
$GPRMC,133423.23,V,,,,,,,291107,,,N*74
$GPGSV,2,1,07,16,69,230,44,21,61,072,47,18,35,128,46,03,,,31*41
$GPGSV,2,2,07,19,,,32,22,,,42,27,,,22*74
$GPGSA,A,1,16,18,21,,,,,,,,,,11.2,5.0,10.0*3B
$GPGGA,133424.53,,,,,00,00,5.0,,M,0.0001999,M,0.0020599,*59
$GPRMC,133424.53,V,,,,,,,291107,,,N*74
$GPGSV,2,1,07,16,69,230,44,21,61,072,49,18,35,128,42,03,,,30*4A
$GPGSV,2,2,07,19,,,33,22,,,44,27,,,20*71
$GPGSA,A,1,16,18,21,,,,,,,,,,11.2,5.0,10.0*3B
$PGLOR,IGR,181.40,8,622,7,10943,0,20*3C
$GPGGA,133425.54,,,,,00,00,5.0,,M,0.0001999,M,0.0020599,*5F
$GPRMC,133425.54,V,,,,,,,291107,,,N*72
$GPGSV,2,1,07,16,69,230,41,21,61,072,48,18,35,128,39,03,,,30*42
$GPGSV,2,2,07,19,,,36,22,,,42,27,,,19*78
$GPGSA,A,1,16,18,21,,,,,,,,,,11.2,5.0,10.0*3B
$GPGGA,133426.55,,,,,00,00,5.0,,M,0.0001999,M,0.0020599,*5D
$GPRMC,133426.55,V,,,,,,,291107,,,N*70
$GPGSV,2,1,07,16,69,230,37,21,61,072,49,18,35,128,35,03,,,29*46
$GPGSV,2,2,07,19,,,35,22,,,42,27,,,18*7A
$GPGSA,A,1,16,18,21,,,,,,,,,,11.2,5.0,10.0*3B
$GPGGA,133427.63,,,,,00,00,5.0,,M,0.0001999,M,0.0020599,*59
$GPRMC,133427.63,V,,,,,,,291107,,,N*74
$GPGSV,2,1,07,16,69,230,34,21,61,072,48,18,35,128,46,03,,,27*4E
$GPGSV,2,2,07,19,,,33,22,,,42,27,,,17*73
$GPGSA,A,1,16,18,21,,,,,,,,,,11.2,5.0,10.0*3B
$GPGGA,133428.51,,,,,00,00,5.0,,M,0.0001999,M,0.0020599,*57
$GPRMC,133428.51,V,,,,,,,291107,,,N*7A
$GPGSV,2,1,07,16,69,230,32,21,61,072,48,18,35,128,42,03,,,32*48
$GPGSV,2,2,07,19,,,34,22,,,43,27,,,16*74
$GPGSA,A,1,16,18,21,,,,,,,,,,11.2,5.0,10.0*3B
$GPGGA,133428.99,,,,,00,00,1000.0,,M,0.0001999,M,0.0020599,*67
$GPRMC,133428.99,V,,,,,,,291107,,,N*7E
$GPGSV,2,1,07,16,69,230,47,21,61,072,49,18,35,128,39,19,10,276,35*79
$GPGSV,2,2,07,03,,,36,22,,,43,27,,,14*7F
$GPGSA,A,1,16,18,19,21,,,,,,,,,2230.0,1000.0,2000.0*05
$GPGGA,133429.99,,,,,00,00,1000.0,,M,0.0001999,M,0.0020599,*66
$GPRMC,133429.99,V,,,,,,,291107,,,N*7F
$GPGSV,2,1,07,16,69,230,44,21,61,072,48,18,35,128,35,19,10,276,35*77
$GPGSV,2,2,07,03,,,35,22,,,41,27,,,13*79
$GPGSA,A,1,16,18,19,21,,,,,,,,,2230.0,1000.0,2000.0*05
$GPGGA,133430.99,,,,,00,00,1000.0,,M,0.0001999,M,0.0020599,*6E
$GPRMC,133430.99,V,,,,,,,291107,,,N*77
$GPGSV,2,1,07,16,69,230,41,21,61,072,49,18,35,128,33,19,10,276,33*73
$GPGSV,2,2,07,03,,,33,22,,,42,27,,,25*79
$GPGSA,A,1,16,18,19,21,,,,,,,,,2230.0,1000.0,2000.0*05
$GPGGA,133431.99,,,,,00,00,1000.0,,M,0.0001999,M,0.0020599,*6F
$GPRMC,133431.99,V,,,,,,,291107,,,N*76
$GPGSV,2,1,07,16,69,230,37,21,61,072,48,18,35,128,48,19,10,276,31*7D
$GPGSV,2,2,07,03,,,35,22,,,42,27,,,26*7C
$GPGSA,A,1,16,18,19,21,,,,,,,,,2230.0,1000.0,2000.0*05
$GPGGA,133432.99,,,,,00,00,1000.0,,M,0.0001999,M,0.0020599,*6C
$GPRMC,133432.99,V,,,,,,,291107,,,N*75
$GPGSV,2,1,07,16,69,230,34,21,61,072,48,18,35,128,44,19,10,276,29*7B
$GPGSV,2,2,07,03,,,34,22,,,44,27,,,26*7B
$GPGSA,A,1,16,18,19,21,,,,,,,,,2230.0,1000.0,2000.0*05
$GPGGA,133433.99,,,,,00,00,300.0,,M,0.0001999,M,0.0020599,*5F
$GPRMC,133433.99,V,,,,,,,291107,,,N*74
$GPGSV,2,1,07,16,69,230,31,21,61,072,50,18,35,128,41,19,10,276,27*7C
$GPGSV,2,2,07,03,,,33,22,,,41,27,,,26*79
$GPGSA,A,1,16,18,19,21,,,,,,,,,669.0,300.0,600.0*39
$GPGGA,133435.00,5131.126081,N,00007.342764,W,1,05,3.0,064.0,M,0.205002,M,0.0020515,*5C
$GPRMC,133435.00,A,5131.126081,N,00007.342764,W,000.0,000.0,291107,,,A*4E
$GPGSV,3,1,11,16,69,230,45,21,61,072,49,18,35,128,44,22,12,153,41*7A
$GPGSV,3,2,11,19,10,276,33,03,46,277,31,27,09,334,25,07,23,092,*71
$GPGSV,3,3,11,25,19,318,,24,18,050,,06,13,091,*4A
$GPGSA,A,3,16,18,19,21,22,,,,,,,,6.7,3.0,6.0*33
$PGLOR,FIX,73.3,TR,73.2,ST,U,NS,A,DR,N,PS,A*02
$GPGGA,133436.00,5131.126081,N,00007.342764,W,1,05,3.0,064.0,M,0.205002,M,0.0000515,*5D
$GPRMC,133436.00,A,5131.126081,N,00007.342764,W,000.0,000.0,291107,,,A*4D
$GPGSV,3,1,11,16,75,204,40,21,53,068,42,18,30,116,40,19,17,268,31*79
$GPGSV,3,2,11,22,12,152,38,03,46,277,32,07,23,092,,25,19,318,*7C
$GPGSV,3,3,11,24,18,050,,06,13,091,,27,09,334,*47
$GPGSA,A,3,16,18,19,21,22,,,,,,,,6.7,3.0,6.0*33
$PGLOR,FIX,1.0,ST,U,NS,A,DR,N,PS,A*2A
$GPGGA,133437.00,5131.132410,N,00007.346677,W,1,05,0.5,056.0,M,0.209000,M,0.0000515,*5B
$GPRMC,133437.00,A,5131.132410,N,00007.346677,W,000.0,000.0,291107,,,A*42
$GPGSV,3,1,11,16,75,204,44,21,53,068,49,18,30,116,44,19,17,268,33*70
$GPGSV,3,2,11,22,12,152,41,03,46,277,35,07,23,092,,25,19,318,*75
$GPGSV,3,3,11,24,18,050,,06,13,091,,27,09,334,*47
$GPGSA,A,3,16,18,19,21,22,,,,,,,,1.1,0.5,1.0*33
$PGLOR,FIX,1.0,ST,U,NS,A,DR,N,PS,A*2A
$GPGGA,133438.00,5131.132410,N,00007.346677,W,1,05,3.0,056.0,M,0.209000,M,0.0000515,*52
$GPRMC,133438.00,A,5131.132410,N,00007.346677,W,000.0,000.0,291107,,,A*4D
$GPGSV,3,1,11,16,75,204,40,21,53,068,41,18,30,116,34,19,17,268,28*71
$GPGSV,3,2,11,22,12,152,35,03,46,277,33,07,23,092,,25,19,318,*70
$GPGSV,3,3,11,24,18,050,,06,13,091,,27,09,334,*47
$GPGSA,A,3,16,18,19,21,22,,,,,,,,6.7,3.0,6.0*33
$PGLOR,FIX,1.0,ST,U,NS,A,DR,N,PS,A*2A
$GPGGA,133439.00,5131.131642,N,00007.351656,W,1,05,0.5,056.0,M,0.208000,M,0.0000515,*57
$GPRMC,133439.00,A,5131.131642,N,00007.351656,W,000.0,000.0,291107,,,A*4F
$GPGSV,3,1,11,16,75,204,42,21,53,068,46,18,30,116,39,19,17,268,26*77
$GPGSV,3,2,11,22,12,152,40,03,46,277,31,07,23,092,,25,19,318,*70
$GPGSV,3,3,11,24,18,050,,06,13,091,,27,09,334,*47
$GPGSA,A,3,16,18,19,21,22,,,,,,,,1.1,0.5,1.0*33
$PGLOR,FIX,1.0,ST,U,NS,A,DR,N,PS,A*2A
$GPGGA,133440.00,5131.131642,N,00007.351656,W,1,05,3.0,056.0,M,0.208000,M,0.0000515,*5F
$GPRMC,133440.00,A,5131.131642,N,00007.351656,W,000.0,000.0,291107,,,A*41
$GPGSV,3,1,11,16,75,204,42,21,53,068,44,18,30,116,37,19,17,268,33*7F
$GPGSV,3,2,11,22,12,152,37,03,46,277,34,25,19,318,30,07,23,092,*76
$GPGSV,3,3,11,24,18,050,,06,13,091,,27,09,334,*47
$GPGSA,A,3,16,18,19,21,22,,,,,,,,6.7,3.0,6.0*33
$PGLOR,FIX,1.0,ST,U,NS,A,DR,N,PS,A*2A
$GPGGA,133441.00,5131.128880,N,00007.352401,W,1,05,0.5,059.0,M,0.208000,M,0.0000515,*5C
$GPRMC,133441.00,A,5131.128880,N,00007.352401,W,000.0,000.0,291107,,,A*4B
$GPGSV,3,1,11,16,75,204,41,21,53,068,44,18,30,116,39,19,17,268,31*70
$GPGSV,3,2,11,22,12,152,40,03,46,277,33,25,19,318,29,07,23,092,*79
$GPGSV,3,3,11,24,18,050,,06,13,091,,27,09,334,*47
$GPGSA,A,3,16,18,19,21,22,,,,,,,,1.1,0.5,1.0*33
$PGLOR,FIX,1.0,ST,U,NS,A,DR,N,PS,A*2A
$GPGGA,133442.00,5131.128880,N,00007.352401,W,1,05,0.5,059.0,M,0.208000,M,0.0000515,*5F
$GPRMC,133442.00,A,5131.128880,N,00007.352401,W,000.0,000.0,291107,,,A*48
$GPGSV,3,1,11,16,75,204,41,21,53,068,46,18,30,116,40,19,17,268,28*74
$GPGSV,3,2,11,22,12,152,41,03,46,277,34,25,19,318,27,07,23,092,*71
$GPGSV,3,3,11,24,18,050,,06,13,091,,27,09,334,*47
$GPGSA,A,3,16,18,19,21,22,,,,,,,,1.1,0.5,1.0*33
$PGLOR,FIX,1.0,ST,U,NS,A,DR,N,PS,A*2A
$GPGGA,133443.00,5131.128880,N,00007.352401,W,1,05,3.0,059.0,M,0.209000,M,0.0000515,*59
$GPRMC,133443.00,A,5131.128880,N,00007.352401,W,000.0,000.0,291107,,,A*49
$GPGSV,3,1,11,16,75,204,42,21,53,068,43,18,30,116,39,19,17,268,27*73
$GPGSV,3,2,11,22,12,152,37,03,46,277,32,25,19,318,25,07,23,092,*74
$GPGSV,3,3,11,24,18,050,,06,13,091,,27,09,334,*47
$GPGSA,A,3,16,18,19,21,22,,,,,,,,6.7,3.0,6.0*33
$PGLOR,FIX,1.0,ST,U,NS,A,DR,N,PS,A*2A
$GPGGA,133444.00,5131.128880,N,00007.352401,W,1,05,0.5,059.0,M,0.209000,M,0.0000515,*58
$GPRMC,133444.00,A,5131.128880,N,00007.352401,W,000.0,000.0,291107,,,A*4E
$GPGSV,3,1,11,16,75,204,44,21,53,068,44,18,30,116,37,19,17,268,26*7D
$GPGSV,3,2,11,22,12,152,37,03,46,277,35,25,19,318,28,07,23,092,*7E
$GPGSV,3,3,11,24,18,050,,06,13,091,,27,09,334,*47
$GPGSA,A,3,16,18,19,21,22,,,,,,,,1.1,0.5,1.0*33
$PGLOR,FIX,1.0,ST,U,NS,A,DR,N,PS,A*2A
$GPGGA,133445.00,5131.128880,N,00007.352401,W,1,05,1.0,059.0,M,0.209000,M,0.0000515,*5D
$GPRMC,133445.00,A,5131.128880,N,00007.352401,W,000.0,000.0,291107,,,A*4F
$GPGSV,3,1,11,16,75,204,43,21,53,068,43,18,30,116,35,19,17,268,29*70
$GPGSV,3,2,11,22,12,152,36,03,46,277,33,07,23,092,26,25,19,318,26*73
$GPGSV,3,3,11,24,18,050,,06,13,091,,27,09,334,*47
$GPGSA,A,3,16,18,19,21,22,,,,,,,,2.2,1.0,2.0*34
$PGLOR,FIX,1.0,ST,U,NS,A,DR,N,PS,A*2A
$GPGGA,133446.00,5131.128880,N,00007.352401,W,1,05,0.5,059.0,M,0.209000,M,0.0000515,*5A
$GPRMC,133446.00,A,5131.128880,N,00007.352401,W,000.0,000.0,291107,,,A*4C
$GPGSV,3,1,11,16,75,204,43,21,53,068,44,18,30,116,37,19,17,268,28*74
$GPGSV,3,2,11,22,12,152,37,03,46,277,36,07,23,092,25,25,19,318,25*77
$GPGSV,3,3,11,24,18,050,,06,13,091,,27,09,334,*47
$GPGSA,A,3,16,18,19,21,22,,,,,,,,1.1,0.5,1.0*33
$PGLOR,FIX,1.0,ST,U,NS,A,DR,N,PS,A*2A
$GPGGA,133447.00,5131.128880,N,00007.352401,W,1,05,3.0,059.0,M,0.209000,M,0.0000515,*5D
$GPRMC,133447.00,A,5131.128880,N,00007.352401,W,000.0,000.0,291107,,,A*4D
$GPGSV,3,1,11,16,75,204,43,21,53,068,44,18,30,116,37,19,17,268,33*7E
$GPGSV,3,2,11,22,12,152,39,03,46,277,37,07,23,092,23,25,19,318,23*78
$GPGSV,3,3,11,06,13,091,26,24,18,050,,27,09,334,*43
$GPGSA,A,3,16,18,19,21,22,,,,,,,,6.7,3.0,6.0*33
$PGLOR,FIX,1.0,ST,U,NS,A,DR,N,PS,A*2A
$GPGGA,133448.00,5131.128880,N,00007.352401,W,1,05,0.5,059.0,M,0.209000,M,0.0000515,*54
$GPRMC,133448.00,A,5131.128880,N,00007.352401,W,000.0,000.0,291107,,,A*42
$GPGSV,3,1,11,16,75,204,43,21,53,068,46,18,30,116,41,19,17,268,35*7B
$GPGSV,3,2,11,22,12,152,41,03,46,277,35,07,23,092,22,25,19,318,26*71
$GPGSV,3,3,11,06,13,091,24,24,18,050,,27,09,334,*41
$GPGSA,A,3,16,18,19,21,22,,,,,,,,1.1,0.5,1.0*33
$PGLOR,FIX,1.0,ST,U,NS,A,DR,N,PS,A*2A
$GPGGA,133449.00,5131.128880,N,00007.352401,W,1,05,3.0,059.0,M,0.209000,M,0.0000515,*53
$GPRMC,133449.00,A,5131.128880,N,00007.352401,W,000.0,000.0,291107,,,A*43
$GPGSV,3,1,11,16,75,204,44,21,53,068,46,18,30,116,41,19,17,268,34*7D
$GPGSV,3,2,11,22,12,152,42,03,46,277,35,07,23,092,26,25,19,318,28*78
$GPGSV,3,3,11,06,13,091,23,24,18,050,,27,09,334,*46
$GPGSA,A,3,16,18,19,21,22,,,,,,,,6.7,3.0,6.0*33
$PGLOR,FIX,1.0,ST,U,NS,A,DR,N,PS,A*2A
$GPGGA,133450.00,5131.128880,N,00007.352401,W,1,05,0.5,059.0,M,0.209000,M,0.0000515,*5D
$GPRMC,133450.00,A,5131.128880,N,00007.352401,W,000.0,000.0,291107,,,A*4B
$GPGSV,3,1,11,16,75,204,42,21,53,068,43,18,30,116,40,19,17,268,35*7E
$GPGSV,3,2,11,22,12,152,40,03,46,277,39,07,23,092,27,25,19,318,27*78
$GPGSV,3,3,11,06,13,091,22,24,18,050,,27,09,334,*47
$GPGSA,A,3,16,18,19,21,22,,,,,,,,1.1,0.5,1.0*33
$PGLOR,FIX,1.0,ST,U,NS,A,DR,N,PS,A*2A
$GPGGA,133451.00,5131.128880,N,00007.352401,W,1,05,0.5,059.0,M,0.210000,M,0.0000515,*54
$GPRMC,133451.00,A,5131.128880,N,00007.352401,W,000.0,000.0,291107,,,A*4A
$GPGSV,3,1,11,16,75,204,44,21,53,068,47,18,30,116,40,19,17,268,33*7A
$GPGSV,3,2,11,22,12,152,42,03,46,277,39,07,23,092,27,25,19,318,25*78
$GPGSV,3,3,11,06,13,091,21,24,18,050,,27,09,334,*44
$GPGSA,A,3,16,18,19,21,22,,,,,,,,1.1,0.5,1.0*33
$PGLOR,FIX,1.0,ST,U,NS,A,DR,N,PS,A*2A
$GPGGA,133452.00,5131.128880,N,00007.352401,W,1,05,3.0,059.0,M,0.210000,M,0.0000515,*51
$GPRMC,133452.00,A,5131.128880,N,00007.352401,W,000.0,000.0,291107,,,A*49
$GPGSV,3,1,11,16,75,204,42,21,53,068,43,18,30,116,36,19,17,268,34*7E
$GPGSV,3,2,11,22,12,152,40,03,46,277,40,07,23,092,27,25,19,318,24*75
$GPGSV,3,3,11,06,13,091,19,24,18,050,,27,09,334,*4F
$GPGSA,A,3,16,18,19,21,22,,,,,,,,6.7,3.0,6.0*33
$PGLOR,FIX,1.0,ST,U,NS,A,DR,N,PS,A*2A
$GPGGA,133453.00,5131.128880,N,00007.352401,W,1,05,0.5,059.0,M,0.210000,M,0.0000515,*56
$GPRMC,133453.00,A,5131.128880,N,00007.352401,W,000.0,000.0,291107,,,A*48
$GPGSV,3,1,11,16,75,204,43,21,53,068,47,18,30,116,39,19,17,268,35*75
$GPGSV,3,2,11,22,12,152,41,03,46,277,37,07,23,092,25,25,19,318,23*71
$GPGSV,3,3,11,06,13,091,18,24,18,050,,27,09,334,*4E
$GPGSA,A,3,16,18,19,21,22,,,,,,,,1.1,0.5,1.0*33
$PGLOR,FIX,1.0,ST,U,NS,A,DR,N,PS,A*2A
$GPGGA,133454.00,5131.128880,N,00007.352401,W,1,05,3.0,059.0,M,0.210000,M,0.0000515,*57
$GPRMC,133454.00,A,5131.128880,N,00007.352401,W,000.0,000.0,291107,,,A*4F
$GPGSV,3,1,11,16,75,204,41,21,53,068,44,18,30,116,35,19,17,268,34*79
$GPGSV,3,2,11,22,12,152,40,03,46,277,39,07,23,092,24,25,19,318,24*78
$GPGSV,3,3,11,06,13,091,17,24,18,050,,27,09,334,*41
$GPGSA,A,3,16,18,19,21,22,,,,,,,,6.7,3.0,6.0*33
$PGLOR,FIX,1.0,ST,U,NS,A,DR,N,PS,A*2A
$GPGGA,133455.00,5131.128765,N,00007.356561,W,1,05,0.5,079.0,M,0.210000,M,0.0000515,*55
$GPRMC,133455.00,A,5131.128765,N,00007.356561,W,000.0,000.0,291107,,,A*49
$GPGSV,3,1,11,16,75,204,44,21,53,068,46,18,30,116,36,19,17,268,35*7C
$GPGSV,3,2,11,22,12,152,41,03,46,277,39,07,23,092,23,25,19,318,23*79
$GPGSV,3,3,11,06,13,091,27,27,09,334,24,24,18,050,*44
$GPGSA,A,3,16,18,19,21,22,,,,,,,,1.1,0.5,1.0*33
$PGLOR,FIX,1.0,ST,U,NS,A,DR,N,PS,A*2A
$GPGGA,133456.00,5131.128894,N,00007.356848,W,1,05,3.0,079.0,M,0.210000,M,0.0000515,*57
$GPRMC,133456.00,A,5131.128894,N,00007.356848,W,000.0,000.0,291107,,,A*4D
$GPGSV,3,1,11,16,75,204,42,21,53,068,43,18,30,116,34,19,17,268,34*7C
$GPGSV,3,2,11,22,12,152,39,03,46,277,40,07,23,092,25,25,19,318,21*7C
$GPGSV,3,3,11,06,13,091,24,27,09,334,23,24,18,050,*40
$GPGSA,A,3,16,18,19,21,22,,,,,,,,6.7,3.0,6.0*33
$PGLOR,FIX,1.0,ST,U,NS,A,DR,N,PS,A*2A
$GPGGA,133457.00,5131.129017,N,00007.357102,W,1,05,0.5,079.0,M,0.210000,M,0.0000515,*54
$GPRMC,133457.00,A,5131.129017,N,00007.357102,W,000.0,000.0,291107,,,A*48
$GPGSV,3,1,11,16,75,204,43,21,53,068,44,18,30,116,35,19,17,268,33*7C
$GPGSV,3,2,11,22,12,152,41,03,46,277,41,07,23,092,29,25,19,318,27*78
$GPGSV,3,3,11,06,13,091,23,27,09,334,22,24,18,050,*46
$GPGSA,A,3,16,18,19,21,22,,,,,,,,1.1,0.5,1.0*33
$PGLOR,FIX,1.0,ST,U,NS,A,DR,N,PS,A*2A
$GPGGA,133458.00,5131.129104,N,00007.357301,W,1,05,0.5,079.0,M,0.211000,M,0.0000515,*58
$GPRMC,133458.00,A,5131.129104,N,00007.357301,W,000.0,000.0,291107,,,A*45
$GPGSV,3,1,11,16,75,204,44,21,53,068,46,18,30,116,36,19,17,268,34*7D
$GPGSV,3,2,11,22,12,152,42,03,46,277,39,07,23,092,27,25,19,318,26*7B
$GPGSV,3,3,11,06,13,091,21,27,09,334,20,24,18,050,*46
$GPGSA,A,3,16,18,19,21,22,,,,,,,,1.1,0.5,1.0*33
$PGLOR,FIX,1.0,ST,U,NS,A,DR,N,PS,A*2A
$GPGGA,133459.00,5131.129184,N,00007.357536,W,1,06,3.0,079.0,M,0.210000,M,0.0000515,*57
$GPRMC,133459.00,A,5131.129184,N,00007.357536,W,000.0,000.0,291107,,,A*4E
$GPGSV,3,1,11,16,75,204,43,21,53,068,44,03,46,276,39,18,30,116,36*75
$GPGSV,3,2,11,19,17,268,35,22,12,152,40,07,23,092,26,25,19,318,24*77
$GPGSV,3,3,11,06,13,091,20,27,09,334,19,24,18,050,*4D
$GPGSA,A,3,03,16,18,19,21,22,,,,,,,6.7,3.0,6.0*30
$PGLOR,FIX,1.0,ST,U,NS,A,DR,N,PS,A*2A
$GPGGA,133500.00,5131.129262,N,00007.357798,W,1,06,0.5,078.0,M,0.211000,M,0.0000515,*51
$GPRMC,133500.00,A,5131.129262,N,00007.357798,W,000.0,000.0,291107,,,A*4E
$GPGSV,3,1,11,16,75,204,43,21,53,068,46,03,46,276,36,18,30,116,36*78
$GPGSV,3,2,11,19,17,268,34,22,12,152,41,07,23,092,24,25,19,318,23*72
$GPGSV,3,3,11,06,13,091,19,27,09,334,18,24,18,050,*46
$GPGSA,A,3,03,16,18,19,21,22,,,,,,,1.1,0.5,1.0*30
$PGLOR,FIX,1.0,ST,U,NS,A,DR,N,PS,A*2A
$GPGGA,133501.00,5131.129356,N,00007.358130,W,1,06,3.0,076.0,M,0.210000,M,0.0000515,*54
$GPRMC,133501.00,A,5131.129356,N,00007.358130,W,000.0,000.0,291107,,,A*42
$GPGSV,3,1,11,16,75,204,43,21,53,068,46,03,46,276,36,18,30,116,37*79
$GPGSV,3,2,11,19,17,268,33,22,12,152,41,07,23,092,28,25,19,318,21*7B
$GPGSV,3,3,11,06,13,091,18,27,09,334,26,24,18,050,*4A
$GPGSA,A,3,03,16,18,19,21,22,,,,,,,6.7,3.0,6.0*30
$PGLOR,FIX,1.0,ST,U,NS,A,DR,N,PS,A*2A
$GPGGA,133502.00,5131.129478,N,00007.358571,W,1,06,0.5,074.0,M,0.210000,M,0.0000515,*59
$GPRMC,133502.00,A,5131.129478,N,00007.358571,W,000.0,000.0,291107,,,A*4B
$GPGSV,3,1,11,16,75,204,43,21,53,068,46,03,46,276,37,18,30,116,39*76
$GPGSV,3,2,11,19,17,268,32,22,12,152,40,07,23,092,27,25,19,318,20*75
$GPGSV,3,3,11,06,13,091,17,27,09,334,28,24,18,050,*4B
$GPGSA,A,3,03,16,18,19,21,22,,,,,,,1.1,0.5,1.0*30
$PGLOR,FIX,1.0,ST,U,NS,A,DR,N,PS,A*2A
$GPGGA,133503.00,5131.129571,N,00007.358890,W,1,06,3.0,073.0,M,0.210000,M,0.0000515,*53
$GPRMC,133503.00,A,5131.129571,N,00007.358890,W,000.0,000.0,291107,,,A*40
$GPGSV,3,1,11,16,75,204,42,21,53,068,43,03,46,276,36,18,30,116,39*73
$GPGSV,3,2,11,19,17,268,33,22,12,152,39,07,23,092,25,25,19,318,19*72
$GPGSV,3,3,11,06,13,091,16,27,09,334,29,24,18,050,*4B
$GPGSA,A,3,03,16,18,19,21,22,,,,,,,6.7,3.0,6.0*30
$PGLOR,FIX,1.0,ST,U,NS,A,DR,N,PS,A*2A
$GPGGA,133504.00,5131.129689,N,00007.359265,W,1,06,0.5,072.0,M,0.209000,M,0.0000515,*5E
$GPRMC,133504.00,A,5131.129689,N,00007.359265,W,000.0,000.0,291107,,,A*42
$GPGSV,3,1,11,16,74,202,44,21,53,068,46,03,46,276,36,18,30,116,41*78
$GPGSV,3,2,11,19,17,268,34,22,12,152,42,07,23,092,28,25,19,318,17*7A
$GPGSV,3,3,11,06,13,091,14,27,09,334,28,24,18,050,*48
$GPGSA,A,3,03,16,18,19,21,22,,,,,,,1.1,0.5,1.0*30
$PGLOR,FIX,1.0,ST,U,NS,A,DR,N,PS,A*2A
$GPGGA,133505.00,5131.129720,N,00007.359404,W,1,06,0.5,071.0,M,0.210000,M,0.0000515,*57
$GPRMC,133505.00,A,5131.129720,N,00007.359404,W,000.0,000.0,291107,,,A*40
$GPGSV,3,1,11,16,74,202,44,21,53,068,43,03,46,276,37,18,30,116,42*7F
$GPGSV,3,2,11,19,17,268,32,22,12,152,42,07,23,092,31,25,19,318,16*75
$GPGSV,3,3,11,06,13,091,13,27,09,334,28,24,18,050,*4F
$GPGSA,A,3,03,16,18,19,21,22,,,,,,,1.1,0.5,1.0*30
$PGLOR,FIX,1.0,ST,U,NS,A,DR,N,PS,A*2A
$GPGGA,133506.00,5131.129756,N,00007.359596,W,1,06,0.5,071.0,M,0.210000,M,0.0000515,*5F
$GPRMC,133506.00,A,5131.129756,N,00007.359596,W,000.0,000.0,291107,,,A*48
$GPGSV,3,1,11,16,74,202,44,21,53,068,40,03,46,276,37,18,30,116,43*7D
$GPGSV,3,2,11,19,17,268,33,22,12,152,43,07,23,092,30,25,19,318,14*76
$GPGSV,3,3,11,06,13,091,12,27,09,334,27,24,18,050,*41
$GPGSA,A,3,03,16,18,19,21,22,,,,,,,1.1,0.5,1.0*30
$PGLOR,FIX,1.0,ST,U,NS,A,DR,N,PS,A*2A
$GPGGA,133507.00,5131.129793,N,00007.359828,W,1,06,3.0,070.0,M,0.209000,M,0.0000515,*50
$GPRMC,133507.00,A,5131.129793,N,00007.359828,W,000.0,000.0,291107,,,A*48
$GPGSV,3,1,11,16,74,202,42,21,53,068,46,03,46,276,35,18,30,116,40*7C
$GPGSV,3,2,11,19,17,268,33,22,12,152,40,07,23,092,30,25,19,318,13*72
$GPGSV,3,3,11,06,13,091,11,27,09,334,25,24,18,050,*40
$GPGSA,A,3,03,16,18,19,21,22,,,,,,,6.7,3.0,6.0*30
$PGLOR,FIX,1.0,ST,U,NS,A,DR,N,PS,A*2A
$GPGGA,133508.00,5131.129840,N,00007.359992,W,1,06,3.0,070.0,M,0.209000,M,0.0000515,*5E
$GPRMC,133508.00,A,5131.129840,N,00007.359992,W,000.0,000.0,291107,,,A*46
$GPGSV,3,1,11,16,74,202,43,21,53,068,42,03,46,276,36,18,30,116,41*7B
$GPGSV,3,2,11,19,17,268,35,22,12,152,42,07,23,092,30,25,19,318,11*74
$GPGSV,3,3,11,27,09,334,27,24,18,050,,06,13,091,*42
$GPGSA,A,3,03,16,18,19,21,22,,,,,,,6.7,3.0,6.0*30
$PGLOR,FIX,1.0,ST,U,NS,A,DR,N,PS,A*2A
$GPGGA,133509.00,5131.129909,N,00007.359986,W,1,06,0.5,071.0,M,0.209000,M,0.0000515,*51
$GPRMC,133509.00,A,5131.129909,N,00007.359986,W,000.0,000.0,291107,,,A*4E
$GPGSV,3,1,11,16,74,202,44,21,53,068,46,03,46,276,37,18,30,116,42*7A
$GPGSV,3,2,11,19,17,268,33,22,12,152,43,07,23,092,29,27,09,334,26*72
$GPGSV,3,3,11,25,19,318,,24,18,050,,06,13,091,*4A
$GPGSA,A,3,03,16,18,19,21,22,,,,,,,1.1,0.5,1.0*30
$PGLOR,FIX,1.0,ST,U,NS,A,DR,N,PS,A*2A
$GPGGA,133510.00,5131.129969,N,00007.359911,W,1,06,0.5,071.0,M,0.209000,M,0.0010515,*50
$GPRMC,133510.00,A,5131.129969,N,00007.359911,W,000.0,000.0,291107,,,A*4E
$GPGSV,3,1,11,16,74,202,44,21,53,068,46,03,46,276,37,18,30,116,41*79
$GPGSV,3,2,11,19,17,268,33,22,12,152,43,07,23,092,26,27,09,334,24*7F
$GPGSV,3,3,11,25,19,318,,24,18,050,,06,13,091,*4A
$GPGSA,A,3,03,16,18,19,21,22,,,,,,,1.1,0.5,1.0*30
$PGLOR,FIX,1.0,ST,U,NS,A,DR,N,PS,A*2A
$GPGGA,133511.00,5131.130041,N,00007.359762,W,1,06,3.0,072.0,M,0.209000,M,0.0000515,*54
$GPRMC,133511.00,A,5131.130041,N,00007.359762,W,000.0,000.0,291107,,,A*4E
$GPGSV,3,1,11,16,74,202,43,21,53,068,44,03,46,276,36,18,30,116,40*7C
$GPGSV,3,2,11,19,17,268,33,22,12,152,41,07,23,092,25,25,19,318,26*71
$GPGSV,3,3,11,27,09,334,23,24,18,050,,06,13,091,*46
$GPGSA,A,3,03,16,18,19,21,22,,,,,,,6.7,3.0,6.0*30
$PGLOR,FIX,1.0,ST,U,NS,A,DR,N,PS,A*2A
$GPGGA,133512.00,5131.130123,N,00007.359579,W,1,06,3.0,072.0,M,0.209000,M,0.0000515,*5A
$GPRMC,133512.00,A,5131.130123,N,00007.359579,W,000.0,000.0,291107,,,A*40
$GPGSV,3,1,11,16,74,202,44,21,53,068,46,03,46,276,37,18,30,116,42*7A
$GPGSV,3,2,11,19,17,268,34,22,12,152,42,07,23,092,27,25,19,318,28*79
$GPGSV,3,3,11,27,09,334,22,24,18,050,,06,13,091,*47
$GPGSA,A,3,03,16,18,19,21,22,,,,,,,6.7,3.0,6.0*30
$PGLOR,FIX,1.0,ST,U,NS,A,DR,N,PS,A*2A
$GPGGA,133513.00,5131.130232,N,00007.359502,W,1,06,3.0,071.0,M,0.209000,M,0.0010515,*56
$GPRMC,133513.00,A,5131.130232,N,00007.359502,W,000.0,000.0,291107,,,A*4E
$GPGSV,3,1,11,16,74,202,44,21,53,068,46,03,46,276,36,18,30,116,41*78
$GPGSV,3,2,11,19,17,268,32,22,12,152,42,07,23,092,30,25,19,318,27*76
$GPGSV,3,3,11,27,09,334,20,24,18,050,,06,13,091,*45
$GPGSA,A,3,03,16,18,19,21,22,,,,,,,6.7,3.0,6.0*30
$PGLOR,FIX,1.0,ST,U,NS,A,DR,N,PS,A*2A
$GPGGA,133514.00,5131.130436,N,00007.359485,W,1,06,0.5,070.0,M,0.209000,M,0.0010515,*5A
$GPRMC,133514.00,A,5131.130436,N,00007.359485,W,000.0,000.0,291107,,,A*45
$GPGSV,3,1,11,16,74,202,46,21,53,068,49,03,46,276,36,18,30,116,43*77
$GPGSV,3,2,11,19,17,268,32,22,12,152,43,07,23,092,29,25,19,318,25*7D
$GPGSV,3,3,11,27,09,334,19,24,18,050,,06,13,091,*4F
$GPGSA,A,3,03,16,18,19,21,22,,,,,,,1.1,0.5,1.0*30
$PGLOR,FIX,1.0,ST,U,NS,A,DR,N,PS,A*2A
$GPGGA,133515.00,5131.130625,N,00007.359681,W,1,06,0.5,068.0,M,0.209000,M,0.0010515,*54
$GPRMC,133515.00,A,5131.130625,N,00007.359681,W,000.0,000.0,291107,,,A*42
$GPGSV,3,1,11,16,74,202,44,21,53,068,48,03,46,276,36,18,30,116,43*74
$GPGSV,3,2,11,19,17,268,31,22,12,152,42,07,23,092,29,25,19,318,28*72
$GPGSV,3,3,11,27,09,334,18,24,18,050,,06,13,091,*4E
$GPGSA,A,3,03,16,18,19,21,22,,,,,,,1.1,0.5,1.0*30
$PGLOR,FIX,1.0,ST,U,NS,A,DR,N,PS,A*2A
$GPGGA,133516.00,5131.130779,N,00007.360004,W,1,06,0.5,066.0,M,0.209000,M,0.0010515,*50
$GPRMC,133516.00,A,5131.130779,N,00007.360004,W,000.0,000.0,291107,,,A*48
$GPGSV,3,1,11,16,74,202,44,21,53,068,47,03,46,276,36,18,30,116,43*7B
$GPGSV,3,2,11,19,17,268,32,22,12,152,42,07,23,092,28,25,19,318,26*7E
$GPGSV,3,3,11,27,09,334,17,24,18,050,,06,13,091,*41
$GPGSA,A,3,03,16,18,19,21,22,,,,,,,1.1,0.5,1.0*30
$PGLOR,FIX,1.0,ST,U,NS,A,DR,N,PS,A*2A
$GPGGA,133517.00,5131.130908,N,00007.360399,W,1,06,3.0,065.0,M,0.209000,M,0.0010505,*5A
$GPRMC,133517.00,A,5131.130908,N,00007.360399,W,000.0,000.0,291107,,,A*46
$GPGSV,3,1,11,16,74,202,44,21,53,068,46,03,46,276,34,18,30,116,41*7A
$GPGSV,3,2,11,19,17,268,33,22,12,152,41,07,23,092,26,25,19,318,34*71
$GPGSV,3,3,11,27,09,334,16,24,18,050,,06,13,091,*40
$GPGSA,A,3,03,16,18,19,21,22,,,,,,,6.7,3.0,6.0*30
$PGLOR,FIX,1.0,ST,U,NS,A,DR,N,PS,A*2A
$GPGGA,133518.00,5131.131048,N,00007.360967,W,1,06,3.0,063.0,M,0.209000,M,0.0010515,*55
$GPRMC,133518.00,A,5131.131048,N,00007.360967,W,000.0,000.0,291107,,,A*4E
$GPGSV,3,1,11,16,74,202,46,21,53,068,47,03,46,276,34,18,30,116,41*79
$GPGSV,3,2,11,19,17,268,35,22,12,152,41,07,23,092,25,25,19,318,34*74
$GPGSV,3,3,11,27,09,334,15,24,18,050,,06,13,091,*43
$GPGSA,A,3,03,16,18,19,21,22,,,,,,,6.7,3.0,6.0*30
$PGLOR,FIX,1.0,ST,U,NS,A,DR,N,PS,A*2A
$GPGGA,133519.00,5131.131294,N,00007.361916,W,1,06,0.5,061.0,M,0.209000,M,0.0010505,*55
$GPRMC,133519.00,A,5131.131294,N,00007.361916,W,000.0,000.0,291107,,,A*4B
$GPGSV,3,1,11,16,74,202,46,21,53,068,48,03,46,276,36,18,30,116,42*77
$GPGSV,3,2,11,19,17,268,35,22,12,152,43,07,23,092,24,25,19,318,34*77
$GPGSV,3,3,11,27,09,334,13,24,18,050,,06,13,091,*45
$GPGSA,A,3,03,16,18,19,21,22,,,,,,,1.1,0.5,1.0*30
$PGLOR,FIX,1.0,ST,U,NS,A,DR,N,PS,A*2A
$GPGGA,133520.00,5131.131485,N,00007.362577,W,1,06,0.5,060.0,M,0.209000,M,0.0010505,*50
$GPRMC,133520.00,A,5131.131485,N,00007.362577,W,000.0,000.0,291107,,,A*4F
$GPGSV,3,1,11,16,74,202,44,21,53,068,48,03,46,276,36,18,30,116,42*75
$GPGSV,3,2,11,19,17,268,35,22,12,152,43,07,23,092,23,25,19,318,32*76
$GPGSV,3,3,11,27,09,334,12,24,18,050,,06,13,091,*44
$GPGSA,A,3,03,16,18,19,21,22,,,,,,,1.1,0.5,1.0*30
$PGLOR,FIX,1.0,ST,U,NS,A,DR,N,PS,A*2A
$GPGGA,133521.00,5131.131662,N,00007.363159,W,1,06,1.0,060.0,M,0.209000,M,0.0010505,*57
$GPRMC,133521.00,A,5131.131662,N,00007.363159,W,000.0,000.0,291107,,,A*4C
$GPGSV,3,1,11,16,74,202,43,21,53,068,47,03,46,276,34,18,30,116,41*7C
$GPGSV,3,2,11,19,17,268,34,22,12,152,42,07,23,092,21,25,19,318,33*75
$GPGSV,3,3,11,27,09,334,11,24,18,050,,06,13,091,*47
$GPGSA,A,3,03,16,18,19,21,22,,,,,,,2.2,1.0,2.0*37
$PGLOR,FIX,1.0,ST,U,NS,A,DR,N,PS,A*2A
$GPGGA,133522.00,5131.131820,N,00007.363666,W,1,06,1.0,060.0,M,0.209000,M,0.0010505,*57
$GPRMC,133522.00,A,5131.131820,N,00007.363666,W,000.0,000.0,291107,,,A*4C
$GPGSV,3,1,11,16,74,202,43,21,53,068,47,03,46,276,34,18,30,116,42*7F
$GPGSV,3,2,11,19,17,270,37,22,12,152,43,07,23,092,20,25,19,318,31*7D
$GPGSV,3,3,11,27,09,334,24,24,18,050,,06,13,091,*41
$GPGSA,A,3,03,16,18,19,21,22,,,,,,,2.2,1.0,2.0*37
$PGLOR,FIX,1.0,ST,U,NS,A,DR,N,PS,A*2A
$GPGGA,133523.00,5131.131976,N,00007.364147,W,1,06,3.0,060.0,M,0.209000,M,0.0010505,*55
$GPRMC,133523.00,A,5131.131976,N,00007.364147,W,000.0,000.0,291107,,,A*4C
$GPGSV,3,1,11,16,74,202,42,21,53,068,47,03,46,276,34,18,30,116,41*7D
$GPGSV,3,2,11,19,17,270,35,22,12,152,41,07,23,092,28,25,19,318,30*74
$GPGSV,3,3,11,27,09,334,23,24,18,050,,06,13,091,*46
$GPGSA,A,3,03,16,18,19,21,22,,,,,,,6.7,3.0,6.0*30
$PGLOR,FIX,1.0,ST,U,NS,A,DR,N,PS,A*2A
$GPGGA,133524.00,5131.132211,N,00007.364812,W,1,06,0.5,060.0,M,0.209000,M,0.0010505,*54
$GPRMC,133524.00,A,5131.132211,N,00007.364812,W,000.0,000.0,291107,,,A*4B
$GPGSV,3,1,11,16,74,202,46,21,53,068,49,03,46,276,36,18,30,116,42*76
$GPGSV,3,2,11,19,17,270,37,22,12,152,43,07,23,092,27,25,19,318,27*7D
$GPGSV,3,3,11,27,09,334,22,24,18,050,,06,13,091,*47
$GPGSA,A,3,03,16,18,19,21,22,,,,,,,1.1,0.5,1.0*30
$PGLOR,FIX,1.0,ST,U,NS,A,DR,N,PS,A*2A
$PGLOR,IGR,81.2,7,71256,0,1*0E
$GPGGA,133525.00,5131.132385,N,00007.365251,W,1,06,0.5,060.0,M,0.209000,M,0.0010515,*54
$GPRMC,133525.00,A,5131.132385,N,00007.365251,W,000.0,000.0,291107,,,A*4A
$GPGSV,3,1,11,16,74,202,44,21,53,068,49,03,46,276,35,18,30,116,41*74
$GPGSV,3,2,11,19,17,270,37,22,12,152,42,07,23,092,31,25,19,318,26*7A
$GPGSV,3,3,11,27,09,334,21,24,18,050,,06,13,091,*44
$GPGSA,A,3,03,16,18,19,21,22,,,,,,,1.1,0.5,1.0*30
$PGLOR,FIX,1.0,ST,U,NS,A,DR,N,PS,A*2A
$GPGGA,133526.00,5131.132551,N,00007.365608,W,1,06,0.5,061.0,M,0.209000,M,0.0010505,*50
$GPRMC,133526.00,A,5131.132551,N,00007.365608,W,000.0,000.0,291107,,,A*4E
$GPGSV,3,1,11,16,74,202,44,21,53,068,48,03,46,276,36,18,30,116,40*77
$GPGSV,3,2,11,19,17,270,37,22,12,152,42,07,23,092,29,25,19,318,24*71
$GPGSV,3,3,11,27,09,334,20,24,18,050,,06,13,091,*45
$GPGSA,A,3,03,16,18,19,21,22,,,,,,,1.1,0.5,1.0*30
$PGLOR,FIX,1.0,ST,U,NS,A,DR,N,PS,A*2A
$GPGGA,133527.00,5131.132678,N,00007.365826,W,1,06,3.0,061.0,M,0.209000,M,0.0010505,*5D
$GPRMC,133527.00,A,5131.132678,N,00007.365826,W,000.0,000.0,291107,,,A*45
$GPGSV,3,1,11,16,74,202,44,21,53,068,47,03,46,276,35,18,30,116,37*7B
$GPGSV,3,2,11,19,17,270,36,22,12,152,42,07,23,092,28,25,19,318,25*70
$GPGSV,3,3,11,27,09,334,19,24,18,050,,06,13,091,*4F
$GPGSA,A,3,03,16,18,19,21,22,,,,,,,6.7,3.0,6.0*30
$PGLOR,FIX,1.0,ST,U,NS,A,DR,N,PS,A*2A
$GPGGA,133528.00,5131.132790,N,00007.365968,W,1,06,3.0,062.0,M,0.208000,M,0.0010515,*5D
$GPRMC,133528.00,A,5131.132790,N,00007.365968,W,000.0,000.0,291107,,,A*46
$GPGSV,3,1,11,16,74,202,44,21,53,068,47,03,46,276,35,18,30,116,39*75
$GPGSV,3,2,11,19,17,270,36,22,12,152,42,07,23,092,27,25,19,318,25*7F
$GPGSV,3,3,11,27,09,334,17,24,18,050,,06,13,091,*41
$GPGSA,A,3,03,16,18,19,21,22,,,,,,,6.7,3.0,6.0*30
$PGLOR,FIX,1.0,ST,U,NS,A,DR,N,PS,A*2A
$GPGGA,133529.00,5131.132874,N,00007.366035,W,1,06,3.0,062.0,M,0.209000,M,0.0010515,*5A
$GPRMC,133529.00,A,5131.132874,N,00007.366035,W,000.0,000.0,291107,,,A*40
$GPGSV,3,1,11,16,74,202,44,21,53,068,47,03,46,276,35,18,30,116,39*75
$GPGSV,3,2,11,19,17,270,36,22,12,152,41,07,23,092,26,25,19,318,24*7C
$GPGSV,3,3,11,27,09,334,16,24,18,050,,06,13,091,*40
$GPGSA,A,3,03,16,18,19,21,22,,,,,,,6.7,3.0,6.0*30
$PGLOR,FIX,1.0,ST,U,NS,A,DR,N,PS,A*2A
$GPGGA,133530.00,5131.132976,N,00007.366092,W,1,06,0.5,064.0,M,0.209000,M,0.0010515,*5C
$GPRMC,133530.00,A,5131.132976,N,00007.366092,W,000.0,000.0,291107,,,A*46
$GPGSV,3,1,11,16,74,202,47,21,53,068,48,03,46,276,36,18,30,116,37*74
$GPGSV,3,2,11,19,17,270,37,22,12,152,43,07,23,092,26,25,19,318,23*78
$GPGSV,3,3,11,27,09,334,15,24,18,050,,06,13,091,*43
$GPGSA,A,3,03,16,18,19,21,22,,,,,,,1.1,0.5,1.0*30
$PGLOR,FIX,1.0,ST,U,NS,A,DR,N,PS,A*2A
$GPGGA,133531.00,5131.133034,N,00007.366095,W,1,06,0.5,065.0,M,0.208000,M,0.0000515,*55
$GPRMC,133531.00,A,5131.133034,N,00007.366095,W,000.0,000.0,291107,,,A*4E
$GPGSV,3,1,11,16,74,202,46,21,53,068,48,03,46,276,34,18,30,116,37*77
$GPGSV,3,2,11,19,17,270,37,22,12,152,42,07,23,092,25,25,19,318,22*7B
$GPGSV,3,3,11,27,09,334,14,24,18,050,,06,13,091,*42
$GPGSA,A,3,03,16,18,19,21,22,,,,,,,1.1,0.5,1.0*30
$PGLOR,FIX,1.0,ST,U,NS,A,DR,N,PS,A*2A
$GPGGA,133532.00,5131.133076,N,00007.366019,W,1,06,0.5,066.0,M,0.209000,M,0.0000515,*56
$GPRMC,133532.00,A,5131.133076,N,00007.366019,W,000.0,000.0,291107,,,A*4F
$GPGSV,3,1,11,16,74,202,44,21,53,068,48,03,46,276,34,18,30,116,37*75
$GPGSV,3,2,11,19,17,270,37,22,12,152,42,07,23,092,24,25,19,318,24*7C
$GPGSV,3,3,11,27,09,334,13,24,18,050,,06,13,091,*45
$GPGSA,A,3,03,16,18,19,21,22,,,,,,,1.1,0.5,1.0*30
$PGLOR,FIX,1.0,ST,U,NS,A,DR,N,PS,A*2A
$GPGGA,133533.00,5131.133111,N,00007.365919,W,1,06,3.0,067.0,M,0.209000,M,0.0000515,*5A
$GPRMC,133533.00,A,5131.133111,N,00007.365919,W,000.0,000.0,291107,,,A*44
$GPGSV,3,1,11,16,74,202,44,21,53,068,47,03,46,276,34,18,30,116,36*7B
$GPGSV,3,2,11,19,17,270,36,22,12,152,40,07,23,092,24,25,19,318,22*79
$GPGSV,3,3,11,27,09,334,11,24,18,050,,06,13,091,*47
$GPGSA,A,3,03,16,18,19,21,22,,,,,,,6.7,3.0,6.0*30
$PGLOR,FIX,1.0,ST,U,NS,A,DR,N,PS,A*2A
$GPGGA,133534.00,5131.133144,N,00007.365811,W,1,06,1.0,067.0,M,0.208000,M,0.0000505,*56
$GPRMC,133534.00,A,5131.133144,N,00007.365811,W,000.0,000.0,291107,,,A*4A
$GPGSV,3,1,11,16,74,202,44,21,53,068,46,03,46,276,35,18,30,116,36*7B
$GPGSV,3,2,11,19,17,270,36,22,12,152,41,07,23,092,23,25,19,318,21*7C
$GPGSV,3,3,11,24,18,050,,06,13,091,,27,09,334,*47
$GPGSA,A,3,03,16,18,19,21,22,,,,,,,2.2,1.0,2.0*37
$PGLOR,FIX,1.0,ST,U,NS,A,DR,N,PS,A*2A
$GPGGA,133535.00,5131.133199,N,00007.365640,W,1,06,0.5,068.0,M,0.207000,M,0.0000505,*59
$GPRMC,133535.00,A,5131.133199,N,00007.365640,W,000.0,000.0,291107,,,A*41
$GPGSV,3,1,11,16,74,202,47,21,53,068,47,03,46,276,35,18,30,116,41*79
$GPGSV,3,2,11,19,17,270,37,22,12,152,43,07,23,092,22,25,19,318,20*7F
$GPGSV,3,3,11,24,18,050,,06,13,091,,27,09,334,*47
$GPGSA,A,3,03,16,18,19,21,22,,,,,,,1.1,0.5,1.0*30
$PGLOR,FIX,1.0,ST,U,NS,A,DR,N,PS,A*2A
$GPGGA,133536.00,5131.133256,N,00007.365529,W,1,06,0.5,069.0,M,0.207000,M,0.0000505,*57
$GPRMC,133536.00,A,5131.133256,N,00007.365529,W,000.0,000.0,291107,,,A*4E
$GPGSV,3,1,11,16,74,202,44,21,53,068,44,03,46,276,35,18,30,116,41*79
$GPGSV,3,2,11,19,17,270,35,22,12,152,42,07,23,092,25,25,19,318,19*71
$GPGSV,3,3,11,24,18,050,,06,13,091,,27,09,334,*47
$GPGSA,A,3,03,16,18,19,21,22,,,,,,,1.1,0.5,1.0*30
$PGLOR,FIX,1.0,ST,U,NS,A,DR,N,PS,A*2A
$GPGGA,133537.00,5131.133325,N,00007.365491,W,1,06,3.0,069.0,M,0.208000,M,0.0000505,*58
$GPRMC,133537.00,A,5131.133325,N,00007.365491,W,000.0,000.0,291107,,,A*48
$GPGSV,3,1,11,16,74,202,44,21,53,068,46,03,46,276,34,18,30,116,42*79
$GPGSV,3,2,11,19,17,270,35,22,12,152,42,07,23,092,24,25,19,318,18*71
$GPGSV,3,3,11,24,18,050,,06,13,091,,27,09,334,*47
$GPGSA,A,3,03,16,18,19,21,22,,,,,,,6.7,3.0,6.0*30
$PGLOR,FIX,1.0,ST,U,NS,A,DR,N,PS,A*2A
$GPGGA,133538.00,5131.133398,N,00007.365517,W,1,06,3.0,070.0,M,0.208000,M,0.0000515,*57
$GPRMC,133538.00,A,5131.133398,N,00007.365517,W,000.0,000.0,291107,,,A*4E
$GPGSV,3,1,11,16,74,202,44,21,53,068,46,03,46,276,31,18,30,116,41*7F
$GPGSV,3,2,11,19,17,270,34,22,12,152,41,07,23,092,23,25,19,318,17*7B
$GPGSV,3,3,11,24,18,050,,06,13,091,,27,09,334,*47
$GPGSA,A,3,03,16,18,19,21,22,,,,,,,6.7,3.0,6.0*30
$PGLOR,FIX,1.0,ST,U,NS,A,DR,N,PS,A*2A
$GPGGA,133539.00,5131.133426,N,00007.365544,W,1,06,3.0,070.0,M,0.208000,M,0.0000515,*52
$GPRMC,133539.00,A,5131.133426,N,00007.365544,W,000.0,000.0,291107,,,A*4B
$GPGSV,3,1,11,16,74,202,46,21,53,068,47,03,46,276,31,18,30,116,41*7C
$GPGSV,3,2,11,19,17,270,35,22,12,152,41,07,23,092,22,25,19,318,16*7A
$GPGSV,3,3,11,27,09,334,24,24,18,050,,06,13,091,*41
$GPGSA,A,3,03,16,18,19,21,22,,,,,,,6.7,3.0,6.0*30
$PGLOR,FIX,1.0,ST,U,NS,A,DR,N,PS,A*2A
$GPGGA,133540.00,5131.133484,N,00007.365667,W,1,06,0.5,071.0,M,0.208000,M,0.0000515,*51
$GPRMC,133540.00,A,5131.133484,N,00007.365667,W,000.0,000.0,291107,,,A*4F
$GPGSV,3,1,11,16,74,202,46,21,53,068,48,03,46,276,33,18,30,116,43*73
$GPGSV,3,2,11,19,17,270,36,22,12,152,43,07,23,092,25,25,19,318,14*7E
$GPGSV,3,3,11,27,09,334,23,24,18,050,,06,13,091,*46
$GPGSA,A,3,03,16,18,19,21,22,,,,,,,1.1,0.5,1.0*30
$PGLOR,FIX,1.0,ST,U,NS,A,DR,N,PS,A*2A
$GPGGA,133541.00,5131.133538,N,00007.365865,W,1,06,0.5,071.0,M,0.208000,M,0.0000515,*5A
$GPRMC,133541.00,A,5131.133538,N,00007.365865,W,000.0,000.0,291107,,,A*44
$GPGSV,3,1,11,16,74,202,46,21,53,068,46,03,46,276,33,18,30,116,43*7D
$GPGSV,3,2,11,19,17,270,36,22,12,152,43,07,23,092,24,25,19,318,13*78
$GPGSV,3,3,11,27,09,334,22,24,18,050,,06,13,091,*47
$GPGSA,A,3,03,16,18,19,21,22,,,,,,,1.1,0.5,1.0*30
$PGLOR,FIX,1.0,ST,U,NS,A,DR,N,PS,A*2A
$GPGGA,133542.00,5131.133618,N,00007.366251,W,1,06,0.5,071.0,M,0.208000,M,0.0000515,*56
$GPRMC,133542.00,A,5131.133618,N,00007.366251,W,000.0,000.0,291107,,,A*48
$GPGSV,3,1,11,16,74,202,43,21,53,068,48,03,46,276,32,18,30,116,41*75
$GPGSV,3,2,11,19,17,270,35,22,12,152,42,07,23,092,26,25,19,318,12*79
$GPGSV,3,3,11,27,09,334,21,24,18,050,,06,13,091,*44
$GPGSA,A,3,03,16,18,19,21,22,,,,,,,1.1,0.5,1.0*30
$PGLOR,FIX,1.0,ST,U,NS,A,DR,N,PS,A*2A
$GPGGA,133543.00,5131.133699,N,00007.366701,W,1,06,3.0,071.0,M,0.208000,M,0.0010515,*59
$GPRMC,133543.00,A,5131.133699,N,00007.366701,W,000.0,000.0,291107,,,A*40
$GPGSV,3,1,11,16,74,202,44,21,53,068,47,03,46,276,31,18,30,116,41*7E
$GPGSV,3,2,11,19,17,270,34,22,12,152,42,07,23,092,28,25,19,318,26*71
$GPGSV,3,3,11,27,09,334,20,24,18,050,,06,13,091,*45
$GPGSA,A,3,03,16,18,19,21,22,,,,,,,6.7,3.0,6.0*30
$PGLOR,FIX,1.0,ST,U,NS,A,DR,N,PS,A*2A
$GPGGA,133544.00,5131.133795,N,00007.367229,W,1,06,3.0,071.0,M,0.208000,M,0.0010515,*5D
$GPRMC,133544.00,A,5131.133795,N,00007.367229,W,000.0,000.0,291107,,,A*44
$GPGSV,3,1,11,16,74,202,42,21,53,068,47,03,46,276,31,18,30,116,41*78
$GPGSV,3,2,11,19,17,270,34,22,12,152,41,07,23,092,31,25,19,318,30*7D
$GPGSV,3,3,11,27,09,334,18,24,18,050,,06,13,091,*4E
$GPGSA,A,3,03,16,18,19,21,22,,,,,,,6.7,3.0,6.0*30
$PGLOR,FIX,1.0,ST,U,NS,A,DR,N,PS,A*2A
$GPGGA,133545.00,5131.133972,N,00007.368196,W,1,06,0.5,071.0,M,0.208000,M,0.0000505,*55
$GPRMC,133545.00,A,5131.133972,N,00007.368196,W,000.0,000.0,291107,,,A*4A
$GPGSV,3,1,11,16,74,202,44,21,53,068,43,03,46,276,33,18,30,116,41*78
$GPGSV,3,2,11,19,17,270,35,22,12,152,41,07,23,092,30,25,19,318,29*75
$GPGSV,3,3,11,27,09,334,17,24,18,050,,06,13,091,*41
$GPGSA,A,3,03,16,18,19,21,22,,,,,,,1.1,0.5,1.0*30
$PGLOR,FIX,1.0,ST,U,NS,A,DR,N,PS,A*2A
$GPGGA,133546.00,5131.134119,N,00007.368982,W,1,06,0.5,071.0,M,0.208000,M,0.0000515,*58
$GPRMC,133546.00,A,5131.134119,N,00007.368982,W,000.0,000.0,291107,,,A*46
$GPGSV,3,1,11,16,74,202,46,21,53,068,46,03,46,276,28,18,30,116,41*75
$GPGSV,3,2,11,19,17,270,36,22,12,152,41,07,23,092,32,25,19,318,31*7D
$GPGSV,3,3,11,27,09,334,16,24,18,050,,06,13,091,*40
$GPGSA,A,3,03,16,18,19,21,22,,,,,,,1.1,0.5,1.0*30
$PGLOR,FIX,1.0,ST,U,NS,A,DR,N,PS,A*2A
$GPGGA,133547.00,5131.134267,N,00007.369720,W,1,06,0.5,070.0,M,0.208000,M,0.0010515,*54
$GPRMC,133547.00,A,5131.134267,N,00007.369720,W,000.0,000.0,291107,,,A*4A
$GPGSV,3,1,11,16,74,202,44,21,53,068,46,03,46,276,33,18,30,116,40*7C
$GPGSV,3,2,11,19,17,270,36,22,12,152,39,07,23,092,32,25,19,318,33*70
$GPGSV,3,3,11,27,09,334,15,24,18,050,,06,13,091,*43
$GPGSA,A,3,03,16,18,19,21,22,,,,,,,1.1,0.5,1.0*30
$PGLOR,FIX,1.0,ST,U,NS,A,DR,N,PS,A*2A
$GPGGA,133548.00,5131.134388,N,00007.370295,W,1,06,1.0,070.0,M,0.208000,M,0.0010515,*5C
$GPRMC,133548.00,A,5131.134388,N,00007.370295,W,000.0,000.0,291107,,,A*46
$GPGSV,3,1,11,16,74,202,44,21,53,068,46,03,46,276,32,18,30,116,40*7D
$GPGSV,3,2,11,19,17,270,34,22,12,152,37,07,23,092,32,25,19,318,32*7D
$GPGSV,3,3,11,27,09,334,14,24,18,050,,06,13,091,*42
$GPGSA,A,3,03,16,18,19,21,22,,,,,,,2.2,1.0,2.0*37
$PGLOR,FIX,1.0,ST,U,NS,A,DR,N,PS,A*2A
$GPGGA,133549.00,5131.134513,N,00007.370824,W,1,06,1.0,070.0,M,0.208000,M,0.0010515,*59
$GPRMC,133549.00,A,5131.134513,N,00007.370824,W,000.0,000.0,291107,,,A*43
$GPGSV,3,1,11,16,74,202,43,21,53,068,44,03,46,276,33,18,30,116,41*78
$GPGSV,3,2,11,19,17,270,36,22,12,152,40,07,23,092,30,25,19,318,30*7F
$GPGSV,3,3,11,27,09,334,13,24,18,050,,06,13,091,*45
$GPGSA,A,3,03,16,18,19,21,22,,,,,,,2.2,1.0,2.0*37
$PGLOR,FIX,1.0,ST,U,NS,A,DR,N,PS,A*2A
$GPGGA,133550.00,5131.134713,N,00007.371545,W,1,06,0.5,069.0,M,0.209000,M,0.0010515,*55
$GPRMC,133550.00,A,5131.134713,N,00007.371545,W,000.0,000.0,291107,,,A*42
$GPGSV,3,1,11,16,74,202,46,21,53,068,47,03,46,276,33,18,30,116,41*7E
$GPGSV,3,2,11,19,17,270,36,22,12,152,41,07,23,092,31,25,19,318,33*7C
$GPGSV,3,3,11,27,09,334,11,24,18,050,,06,13,091,*47
$GPGSA,A,3,03,16,18,19,21,22,,,,,,,1.1,0.5,1.0*30
$PGLOR,FIX,1.0,ST,U,NS,A,DR,N,PS,A*2A
$GPGGA,133551.00,5131.134872,N,00007.372037,W,1,06,0.5,069.0,M,0.209000,M,0.0010515,*5F
$GPRMC,133551.00,A,5131.134872,N,00007.372037,W,000.0,000.0,291107,,,A*48
$GPGSV,3,1,11,16,74,202,46,21,53,068,46,03,46,276,32,18,30,116,43*7C
$GPGSV,3,2,11,19,17,270,36,22,12,152,40,07,23,092,30,25,19,318,33*7C
$GPGSV,3,3,11,24,18,050,,06,13,091,,27,09,334,*47
$GPGSA,A,3,03,16,18,19,21,22,,,,,,,1.1,0.5,1.0*30
$PGLOR,FIX,1.0,ST,U,NS,A,DR,N,PS,A*2A
$GPGGA,133552.00,5131.135048,N,00007.372464,W,1,06,1.0,068.0,M,0.209000,M,0.0010515,*5B
$GPRMC,133552.00,A,5131.135048,N,00007.372464,W,000.0,000.0,291107,,,A*49
$GPGSV,3,1,11,16,74,202,44,21,53,068,44,03,46,276,35,18,30,116,40*78
$GPGSV,3,2,11,19,17,270,36,22,12,152,40,07,23,092,33,25,19,318,34*78
$GPGSV,3,3,11,24,18,050,,06,13,091,,27,09,334,*47
$GPGSA,A,3,03,16,18,19,21,22,,,,,,,2.2,1.0,2.0*37
$PGLOR,FIX,1.0,ST,U,NS,A,DR,N,PS,A*2A
$GPGGA,133553.00,5131.135201,N,00007.372766,W,1,06,1.0,068.0,M,0.209000,M,0.0010515,*54
$GPRMC,133553.00,A,5131.135201,N,00007.372766,W,000.0,000.0,291107,,,A*46
$GPGSV,3,1,11,16,74,202,46,21,53,068,46,03,46,276,34,18,30,116,42*7B
$GPGSV,3,2,11,19,17,270,35,22,12,152,40,07,23,092,33,25,19,318,33*7C
$GPGSV,3,3,11,24,18,050,,06,13,091,,27,09,334,*47
$GPGSA,A,3,03,16,18,19,21,22,,,,,,,2.2,1.0,2.0*37
$PGLOR,FIX,1.0,ST,U,NS,A,DR,N,PS,A*2A
$GPGGA,133554.00,5131.135363,N,00007.373040,W,1,06,1.0,067.0,M,0.209000,M,0.0010515,*5B
$GPRMC,133554.00,A,5131.135363,N,00007.373040,W,000.0,000.0,291107,,,A*46
$GPGSV,3,1,11,16,74,202,44,21,53,068,44,03,46,276,34,18,30,116,41*78
$GPGSV,3,2,11,19,17,270,34,22,12,152,40,07,23,092,31,25,19,318,31*7D
$GPGSV,3,3,11,24,18,050,,06,13,091,,27,09,334,*47
$GPGSA,A,3,03,16,18,19,21,22,,,,,,,2.2,1.0,2.0*37
$PGLOR,FIX,1.0,ST,U,NS,A,DR,N,PS,A*2A
$GPGGA,133555.00,5131.135611,N,00007.373389,W,1,06,0.5,066.0,M,0.209000,M,0.0010515,*59
$GPRMC,133555.00,A,5131.135611,N,00007.373389,W,000.0,000.0,291107,,,A*41
$GPGSV,3,1,11,16,74,202,47,21,53,068,48,03,46,276,36,18,30,116,44*70
$GPGSV,3,2,11,19,17,270,36,22,12,152,42,07,23,092,31,25,19,318,32*7E
$GPGSV,3,3,11,24,18,050,,06,13,091,,27,09,334,*47
$GPGSA,A,3,03,16,18,19,21,22,,,,,,,1.1,0.5,1.0*30
$PGLOR,FIX,1.0,ST,U,NS,A,DR,N,PS,A*2A
$GPGGA,133556.00,5131.135808,N,00007.373600,W,1,06,0.5,066.0,M,0.209000,M,0.0010515,*58
$GPRMC,133556.00,A,5131.135808,N,00007.373600,W,000.0,000.0,291107,,,A*40
$GPGSV,3,1,11,16,74,202,47,21,53,068,47,03,46,276,36,18,30,116,43*78
$GPGSV,3,2,11,19,17,270,36,22,12,152,41,07,23,092,31,25,19,318,32*7D
$GPGSV,3,3,11,24,18,050,,06,13,091,,27,09,334,*47
$GPGSA,A,3,03,16,18,19,21,22,,,,,,,1.1,0.5,1.0*30
$PGLOR,FIX,1.0,ST,U,NS,A,DR,N,PS,A*2A
$GPGGA,133557.00,5131.136006,N,00007.373763,W,1,06,0.5,065.0,M,0.209000,M,0.0010515,*5B
$GPRMC,133557.00,A,5131.136006,N,00007.373763,W,000.0,000.0,291107,,,A*40
$GPGSV,3,1,11,16,74,202,46,21,53,068,46,03,46,276,35,18,30,116,42*7A
$GPGSV,3,2,11,19,17,270,36,22,12,152,41,07,23,092,31,25,19,318,31*7E
$GPGSV,3,3,11,24,18,050,,06,13,091,,27,09,334,*47
$GPGSA,A,3,03,16,18,19,21,22,,,,,,,1.1,0.5,1.0*30
$PGLOR,FIX,1.0,ST,U,NS,A,DR,N,PS,A*2A
$GPGGA,133558.00,5131.136187,N,00007.373882,W,1,06,0.5,065.0,M,0.209000,M,0.0010515,*5C
$GPRMC,133558.00,A,5131.136187,N,00007.373882,W,000.0,000.0,291107,,,A*47
$GPGSV,3,1,11,16,74,202,46,21,53,068,46,03,46,276,34,18,30,116,41*78
$GPGSV,3,2,11,19,17,270,35,22,12,152,41,07,23,092,31,25,19,318,31*7D
$GPGSV,3,3,11,24,18,050,,06,13,091,,27,09,334,*47
$GPGSA,A,3,03,16,18,19,21,22,,,,,,,1.1,0.5,1.0*30
$PGLOR,FIX,1.0,ST,U,NS,A,DR,N,PS,A*2A
$GPGGA,133559.00,5131.136351,N,00007.373970,W,1,06,1.0,064.0,M,0.209000,M,0.0010515,*5D
$GPRMC,133559.00,A,5131.136351,N,00007.373970,W,000.0,000.0,291107,,,A*43
$GPGSV,3,1,11,16,74,202,44,21,53,068,46,03,46,276,34,18,30,116,42*79
$GPGSV,3,2,11,19,17,270,36,22,12,152,41,07,23,092,30,25,19,318,30*7E
$GPGSV,3,3,11,24,18,050,,06,13,091,,27,09,334,*47
$GPGSA,A,3,03,16,18,19,21,22,,,,,,,2.2,1.0,2.0*37
$PGLOR,FIX,1.0,ST,U,NS,A,DR,N,PS,A*2A
$GPGGA,133600.00,5131.136506,N,00007.374054,W,1,06,0.5,063.0,M,0.209000,M,0.0010515,*5D
$GPRMC,133600.00,A,5131.136506,N,00007.374054,W,000.0,000.0,291107,,,A*40
$GPGSV,3,1,11,16,74,202,46,21,53,068,47,03,46,276,34,18,30,116,41*79
$GPGSV,3,2,11,19,17,270,35,22,12,152,40,07,23,092,31,25,19,318,31*7C
$GPGSV,3,3,11,24,18,050,,06,13,091,,27,09,334,*47
$GPGSA,A,3,03,16,18,19,21,22,,,,,,,1.1,0.5,1.0*30
$PGLOR,FIX,1.0,ST,U,NS,A,DR,N,PS,A*2A
$GPGGA,133601.00,5131.136720,N,00007.374117,W,1,06,0.5,063.0,M,0.209000,M,0.0010515,*5C
$GPRMC,133601.00,A,5131.136720,N,00007.374117,W,000.0,000.0,291107,,,A*41
$GPGSV,3,1,11,16,74,202,48,21,53,068,48,03,46,276,37,18,30,116,42*78
$GPGSV,3,2,11,19,17,270,37,22,12,152,43,07,23,092,31,25,19,318,32*7E
$GPGSV,3,3,11,24,18,050,,06,13,091,,27,09,334,*47
$GPGSA,A,3,03,16,18,19,21,22,,,,,,,1.1,0.5,1.0*30
$PGLOR,FIX,1.0,ST,U,NS,A,DR,N,PS,A*2A
$GPGGA,133602.00,5131.136859,N,00007.374103,W,1,06,0.5,062.0,M,0.208000,M,0.0010515,*5B
$GPRMC,133602.00,A,5131.136859,N,00007.374103,W,000.0,000.0,291107,,,A*46
$GPGSV,3,1,11,16,74,202,47,21,53,068,47,03,46,276,37,18,30,116,41*7B
$GPGSV,3,2,11,19,17,270,36,22,12,152,42,07,23,092,29,25,19,318,33*76
$GPGSV,3,3,11,24,18,050,,06,13,091,,27,09,334,*47
$GPGSA,A,3,03,16,18,19,21,22,,,,,,,1.1,0.5,1.0*30
$PGLOR,FIX,1.0,ST,U,NS,A,DR,N,PS,A*2A
$GPGGA,133603.00,5131.136976,N,00007.374039,W,1,06,0.5,061.0,M,0.209000,M,0.0010515,*5C
$GPRMC,133603.00,A,5131.136976,N,00007.374039,W,000.0,000.0,291107,,,A*43
$GPGSV,3,1,11,16,74,202,46,21,53,068,48,03,46,276,36,18,30,116,40*75
$GPGSV,3,2,11,19,17,270,36,22,12,152,42,07,23,092,28,25,19,318,31*75
$GPGSV,3,3,11,24,18,050,,06,13,091,,27,09,334,*47
$GPGSA,A,3,03,16,18,19,21,22,,,,,,,1.1,0.5,1.0*30
$PGLOR,FIX,1.0,ST,U,NS,A,DR,N,PS,A*2A
$GPGGA,133604.00,5131.137057,N,00007.373919,W,1,06,3.0,060.0,M,0.208000,M,0.0010515,*5A
$GPRMC,133604.00,A,5131.137057,N,00007.373919,W,000.0,000.0,291107,,,A*43
$GPGSV,3,1,11,16,74,202,44,21,53,068,46,03,46,276,36,18,30,116,40*79
$GPGSV,3,2,11,19,17,270,35,22,12,152,41,07,23,092,26,25,19,318,32*78
$GPGSV,3,3,11,24,18,050,,06,13,091,,27,09,334,*47
$GPGSA,A,3,03,16,18,19,21,22,,,,,,,6.7,3.0,6.0*30
$PGLOR,FIX,1.0,ST,U,NS,A,DR,N,PS,A*2A
$GPGGA,133605.00,5131.137148,N,00007.373630,W,1,06,0.5,059.0,M,0.209000,M,0.0010515,*5D
$GPRMC,133605.00,A,5131.137148,N,00007.373630,W,000.0,000.0,291107,,,A*49
$GPGSV,3,1,11,16,74,202,47,21,53,068,48,03,46,276,40,18,30,116,40*75
$GPGSV,3,2,11,19,17,270,39,22,12,152,43,07,23,092,25,25,19,318,31*76
$GPGSV,3,3,11,24,18,050,,06,13,091,,27,09,334,*47
$GPGSA,A,3,03,16,18,19,21,22,,,,,,,1.1,0.5,1.0*30
$PGLOR,FIX,1.0,ST,U,NS,A,DR,N,PS,A*2A
$GPGGA,133606.00,5131.137205,N,00007.373304,W,1,06,0.5,059.0,M,0.208000,M,0.0010515,*57
$GPRMC,133606.00,A,5131.137205,N,00007.373304,W,000.0,000.0,291107,,,A*42
$GPGSV,3,1,11,16,74,202,44,21,53,068,47,03,46,276,39,18,30,116,40*77
$GPGSV,3,2,11,19,17,270,39,22,12,152,42,07,23,092,24,25,19,318,33*74
$GPGSV,3,3,11,24,18,050,,06,13,091,,27,09,334,*47
$GPGSA,A,3,03,16,18,19,21,22,,,,,,,1.1,0.5,1.0*30
$PGLOR,FIX,1.0,ST,U,NS,A,DR,N,PS,A*2A
$GPGGA,133607.00,5131.137247,N,00007.372904,W,1,06,0.5,058.0,M,0.209000,M,0.0010515,*5B
$GPRMC,133607.00,A,5131.137247,N,00007.372904,W,000.0,000.0,291107,,,A*4E
$GPGSV,3,1,11,16,74,202,47,21,53,068,47,03,46,276,39,18,30,116,41*75
$GPGSV,3,2,11,19,17,270,36,22,12,152,42,07,23,092,23,25,19,318,33*7C
$GPGSV,3,3,11,24,18,050,,06,13,091,,27,09,334,*47
$GPGSA,A,3,03,16,18,19,21,22,,,,,,,1.1,0.5,1.0*30
$PGLOR,FIX,1.0,ST,U,NS,A,DR,N,PS,A*2A
$GPGGA,133608.00,5131.137270,N,00007.372516,W,1,06,3.0,059.0,M,0.209000,M,0.0010515,*58
$GPRMC,133608.00,A,5131.137270,N,00007.372516,W,000.0,000.0,291107,,,A*4A
$GPGSV,3,1,11,16,74,202,44,21,53,068,44,03,46,276,36,18,30,116,41*7A
$GPGSV,3,2,11,19,17,270,35,22,12,152,41,07,23,092,22,25,19,318,31*7F
$GPGSV,3,3,11,24,18,050,,06,13,091,,27,09,334,*47
$GPGSA,A,3,03,16,18,19,21,22,,,,,,,6.7,3.0,6.0*30
$PGLOR,FIX,1.0,ST,U,NS,A,DR,N,PS,A*2A
$GPGGA,133609.00,5131.137283,N,00007.372130,W,1,06,1.0,059.0,M,0.209000,M,0.0010515,*57
$GPRMC,133609.00,A,5131.137283,N,00007.372130,W,000.0,000.0,291107,,,A*47
$GPGSV,3,1,11,16,74,202,46,21,53,068,44,03,46,276,37,18,30,116,40*78
$GPGSV,3,2,11,19,17,270,35,22,12,152,41,07,23,092,21,25,19,318,32*7F
$GPGSV,3,3,11,24,18,050,,06,13,091,,27,09,334,*47
$GPGSA,A,3,03,16,18,19,21,22,,,,,,,2.2,1.0,2.0*37
$PGLOR,FIX,1.0,ST,U,NS,A,DR,N,PS,A*2A
$GPGGA,133610.00,5131.137296,N,00007.371740,W,1,06,1.0,059.0,M,0.209000,M,0.0010515,*59
$GPRMC,133610.00,A,5131.137296,N,00007.371740,W,000.0,000.0,291107,,,A*49
$GPGSV,3,1,11,16,74,202,43,21,53,068,44,03,46,276,36,18,30,116,41*7D
$GPGSV,3,2,11,19,17,270,35,22,12,152,41,07,23,092,26,25,19,318,30*7A
$GPGSV,3,3,11,24,18,050,,06,13,091,,27,09,334,*47
$GPGSA,A,3,03,16,18,19,21,22,,,,,,,2.2,1.0,2.0*37
$PGLOR,FIX,1.0,ST,U,NS,A,DR,N,PS,A*2A
$GPGGA,133611.00,5131.137310,N,00007.371098,W,1,06,0.5,061.0,M,0.209000,M,0.0010515,*5A
$GPRMC,133611.00,A,5131.137310,N,00007.371098,W,000.0,000.0,291107,,,A*45
$GPGSV,3,1,11,16,74,202,46,21,53,068,47,03,46,276,39,18,30,116,43*76
$GPGSV,3,2,11,19,17,270,37,22,12,152,44,07,23,092,25,25,19,318,31*7F
$GPGSV,3,3,11,24,18,050,,06,13,091,,27,09,334,*47
$GPGSA,A,3,03,16,18,19,21,22,,,,,,,1.1,0.5,1.0*30
$PGLOR,FIX,1.0,ST,U,NS,A,DR,N,PS,A*2A
$GPGGA,133612.00,5131.137325,N,00007.370636,W,1,06,0.5,062.0,M,0.209000,M,0.0010515,*5F
$GPRMC,133612.00,A,5131.137325,N,00007.370636,W,000.0,000.0,291107,,,A*43
$GPGSV,3,1,11,16,74,202,47,21,53,068,44,03,46,276,37,18,30,116,43*7A
$GPGSV,3,2,11,19,17,270,36,22,12,152,43,07,23,092,24,25,19,318,30*79
$GPGSV,3,3,11,24,18,050,,06,13,091,,27,09,334,*47
